STAIDT,site_no,STATION_NAME,LATITUDE,LONGITUDE,FINAL_REFERENCE,DA_SQKM,NHDV2_COMID
T09423350,9423350,CARUTHERS C NR IVANPAH CA,35.244989,-115.298876,Y,0.84,10016922
T10250600,10250600,WILDROSE C NR WILDROSE STATION CA,36.26494685,-117.1786704,N,23.5,20215220
T10250800,10250800,DARWIN C NR DARWIN CA,36.32049645,-117.5239547,N,173,20216276
T10251100,10251100,SALT C NR STOVEPIPE WELLS CA,36.5993918,-117.0136699,N,NA,20223871
T10251300,10251300,"AMARGOSA RIVER AT TECOPA, CA",35.848577,-116.2300238,N,3090,20247268
T10251350,10251350,HORSETHIEF C NR TECOPA CA,35.7810833,-115.898069,N,3.06,20247670
T10252300,10252300,CHINA SPRING C NR MOUNTAIN PASS CA,35.46803824,-115.5091629,NA,0.94,NA
T10253080,10253080,SUNFLOWER WASH NR ESSEX CA,34.55000359,-115.1077524,N,3.31,22625372
T10253320,10253320,QUAIL WASH NR JOSHUA TREE CA,34.11778404,-116.3083436,N,100,22629484
T10253350,10253350,FORTYNINE PALMS C NR TWENTYNINE PALMS CA,34.12000347,-116.0961148,Y,8.55,22630726
T10253540,10253540,CORN SPRINGS WASH NR DESERT CENTER CA,33.62502237,-115.3230362,N,24.1,22635738
T10253600,10253600,EAGLE C A EAGLE MOUTAIN CA,33.862791,-115.5102636,Y,7.71,22635528
T10254050,10254050,SALT C NR MECCA,33.44697395,-115.8433289,N,269,22599679
T10254670,10254670,ALAMO R AT DROP 3 NR CALIPATRIA CA,33.10444444,-115.5441667,NA,NA,22599625
T10254730,10254730,ALAMO R NR NILAND CA,33.19892768,-115.5969343,NA,NA,22598685
T10254970,10254970,NEW R AT INTERNATIONAL BOUNDARY AT CALEXICO CA,32.6658925,-115.5030501,NA,NA,22603541
T10255550,10255550,NEW R NR WESTMORLAND CA,33.10476565,-115.6644382,NA,NA,22598917
T10255700,10255700,SAN FELIPE C NR JULIAN CA,33.11865416,-116.4352927,N,89.2,22597605
T10255800,10255800,COYOTE C NR BORREGO SPRINGS CA,33.3736453,-116.4275137,Y,144,22597421
T10255805,10255805,COYOTE C BL BOX CANYON NR BORREGO SPRINGS CA,33.36503449,-116.41668,N,154,22595335
T10255810,10255810,BORREGO PALM C NR BORREGO SPRINGS CA,33.27892637,-116.4300139,Y,21.8,22595619
T10255850,10255850,VALLECITO C NR JULIAN CA,32.9861588,-116.4202931,N,39.7,22600545
T10255885,10255885,SAN FELIPE C NR WESTMORLAND CA,33.12393453,-115.8530559,N,1693,22598811
T10256400,10256400,SAN GORGONIO R NR WHITE WATER CA,33.91888889,-116.6977778,N,154,22593405
T10256500,10256500,SNOW C NR WHITE WATER CA,33.8705722,-116.681127,N,10.9,22593463
T10256501,10256501,SNOW C AND DIV COMBINED CA,33.8705722,-116.681127,NA,10.9,22593463
T10256550,10256550,SNOW C DIV NR WHITE WATER CA,33.8705722,-116.681127,NA,NA,22593463
T10257499,10257499,FALLS C DIV NR WHITEWATER CA,33.86946114,-116.6716824,NA,4.14,22591931
T10257500,10257500,FALLS C NR WHITEWATER CA,33.86946114,-116.6716824,Y,4.14,22591931
T10257501,10257501,COMBINED FLOW FALLS C NR WHITEWATER + DIV CA,33.86946114,-116.6716824,NA,NA,22591931
T10257548,10257548,WHITEWATER R A WINDY POINT MAIN CHANNEL CA,33.89890453,-116.6211256,N,264,948100389
T10257549,10257549,WHITEWATER R A WINDY POINT OVERFLOW CHANNEL CA,33.89890453,-116.6211256,NA,264,948100389
T10257550,10257550,WHITEWATER R A WINDY PT NR WHITEWATER CA,33.8989045,-116.6211256,N,264,948100389
T10257600,10257600,MISSION C NR DESERT HOT SPRINGS CA,34.01112284,-116.6280689,Y,35.6,22590267
T10257710,10257710,CHINO CYN C NR PALM SPRINGS CA,33.8391845,-116.6133486,NA,3.84,22591957
T10257720,10257720,CHINO CYN C BL TRAMWAY NR PALM SPRINGS CA,33.8441843,-116.6052929,N,4.71,22591957
T10257800,10257800,LONG C NR DESERT HOT SPRINGS CA,33.96473451,-116.4438997,N,19.6,22593377
T10258000,10258000,TAHQUITZ C NR PALM SPRINGS CA,33.80501929,-116.5591816,Y,16.9,22593497
T10258100,10258100,PALM CYN C TRIB NR ANZA CA,33.5689166,-116.5127935,Y,0.47,22593629
T10258500,10258500,PALM CYN C NR PALM SPRINGS CA,33.74502178,-116.5355709,Y,93.1,22593537
T10259000,10259000,ANDREAS C NR PALM SPRINGS CA,33.7600211,-116.5500155,Y,8.65,22592131
T10259050,10259050,PALM CYN WASH NR CATHEDRAL CITY CA,33.79640866,-116.4808469,N,NA,948100382
T10259100,10259100,WHITEWATER R A RANCHO MIRAGE CA,33.749466,-116.4227903,N,588,22593529
T10259200,10259200,DEEP C NR PALM DESERT CA,33.63113647,-116.3922342,Y,30.6,22592497
T10259300,10259300,WHITEWATER R A INDIO CA,33.7372434,-116.236118,NA,1073,22593695
T10259540,10259540,WHITEWATER R NR MECCA,33.52474915,-116.0775023,N,1495,22592737
T10259600,10259600,COTTONWOOD WASH NR COTTONWOOD SPRINGS CA,33.74446164,-115.8272154,Y,0.65,22594433
T10259920,10259920,WASTEWAY NO 1 NR MECCA,33.52780386,-115.9738878,NA,NA,22594181
T10260200,10260200,PIPES C NR YUCCA VALLEY CA,34.17195164,-116.5466836,N,15.1,22630702
T10260400,10260400,CUSHENBURY C NR LUCERNE CA,34.3644476,-116.8458639,N,6.36,22630538
T10260500,10260500,DEEP C NR HESPERIA CA,34.3411142,-117.228376,N,134,22660265
T10260550,10260550,WF MOJAVE R AB SILVERWOOD LAKE NR HESPERIA CA,34.28500486,-117.3719912,N,3.22,22658543
T10260650,10260650,HOUSTON C BL LK GREGORY A CRESTLINE CA,34.2483395,-117.2689321,N,2.68,22660087
T10260700,10260700,EF OF WF MOJAVE R AB SILVERWOOD LK NR HESPERIA CA,34.2702832,-117.292822,N,11.2,22658611
T10260776,10260776,EB CALIFORNIA AQUEDUCT A ALAMO PP NR GORMAN CA,34.81553377,-118.6850897,NA,NA,22680612
T10260780,10260780,EB CA AQUEDUCT A MOJAVE SIPHON PP NR HESPERIA CA,34.30694847,-117.324212,NA,NA,22660065
T10260820,10260820,WF MOJAVE R BL SILVERWOOD LK CA,34.3041708,-117.3192118,N,34,22660067
T10260822,10260822,LAS FLORES RLS FROM EB CA AQUEDUCT NR HESPERIA CA,34.3091706,-117.3167118,NA,NA,22660067
T10260950,10260950,WF MOJAVE R AB MOJAVE R FORKS RES NR HESPERIA CA,34.33889196,-117.2578213,N,70.3,22660257
T10261000,10261000,WF MOJAVE R NR HESPERIA CA,34.3408364,-117.2408764,N,70.3,22658299
T10261100,10261100,MOJAVE R BL FORKS RES NR HESPERIA CA,34.34583624,-117.2380986,N,209,22660039
T10261500,10261500,MOJAVE R A LO NARROWS NR VICTORVILLE CA,34.57304916,-117.3206018,N,513,948090919
T10261800,10261800,BEACON C A HELENDALE CA,34.74998627,-117.3156029,N,0.72,22656017
T10262000,10262000,MOJAVE R NR HODGE CA,34.83581727,-117.1917113,N,1091,948090834
T10262500,10262500,MOJAVE R A BARSTOW CA,34.90692668,-117.022818,N,1290,22656105
T10262600,10262600,BOOM C NR BARSTOW CA,34.90553866,-116.9494827,Y,0.24,22656481
T10263000,10263000,MOJAVE R A AFTON CA,35.03720565,-116.3841887,N,2121,948091323
T10263500,10263500,BIG ROCK C NR VALYERMO CA,34.42083115,-117.8395072,Y,22.9,22684930
T10263900,10263900,BUCKHORN C NR VALYERMO CA,34.3430555,-117.9211756,Y,0.48,22683630
T10264000,10264000,LITTLE ROCK C AB LTTLE ROCK RES NR LITTLEROCK CA,34.46388375,-118.0189578,Y,49,22681934
T10264530,10264530,PINE C NR PALMDALE CA,34.60248835,-118.2475764,Y,1.78,22680512
T10264555,10264555,ESTATES C NR QUARTZ HILL CA,34.63859799,-118.2486873,N,0.11,22678456
T10264560,10264560,SPENCER CYN C NR FAIRMONT CA,34.77553598,-118.5692525,N,3.6,22680424
T10264590,10264590,COTTONWOOD C NR ROSAMOND CA,34.88553147,-118.437305,N,35.7,22678136
T10264600,10264600,OAK C NR MOJAVE CA,35.04996928,-118.3578592,YY,15.8,22673708
T10264605,10264605,JOSHUA C NR MOJAVE CA,35.0124708,-118.3453587,N,3.83,22673888
T10264675,10264675,ROGERS LK TRIB A EDWARDS AFB CA,34.96830851,-117.8922893,N,1.73,22680750
T10264710,10264710,GOLER GULCH NR RANDSBURG CA,35.39273882,-117.7961756,Y,41.3,22675464
T10264740,10264740,CACHE C NR MOJAVE CA,35.1169117,-118.2022987,N,96.5,22673480
T10264750,10264750,PINE TREE C NR MOJAVE CA,35.23051856,-118.0861845,YY,34.16,948090915
T10264770,10264770,COTTONWOOD C NR CANTIL CA,35.31384962,-118.0447942,N,163,948090855
T10264870,10264870,LITTLE LAKE C NR LITTLE LAKE CA,35.9591129,-117.9131302,N,8.29,20206492
T10264878,10264878,NINEMILE C NR BROWN CA,35.84300465,-117.9272957,N,10.4,20206528
T10265150,10265150,HOT C A FLUME NR MAMMOTH LAKES CA,37.66882166,-118.8176312,N,68.3,20273931
T10265160,10265160,"LITTLE HOT C BL HOT SPR NR MAMMOTH LAKES, CA",37.69021051,-118.8429107,N,NA,20273895
T10265200,10265200,CONVICT C NR MAMMOTH LAKES CA,37.60715621,-118.8487407,N,18.2,20274121
T10265500,10265500,OWENS R NR ROUND VALLEY CA,37.44020879,-118.556508,N,425,20277709
T10268000,10268000,OWENS R A PLEASANT VALLEY NR BISHOP CA,37.41659731,-118.5287287,N,596,20277907
T10268225,10268225,MCGEE C DIV NR BISHOP CA,37.27548809,-118.6201142,NA,NA,20276881
T10270680,10270680,GREEN C COND OUTLET NR BISHOP CA,37.17048855,-118.5648314,NA,NA,20278001
T10270800,10270800,SF BISHOP C BL S LK NR BISHOP CA,37.17715504,-118.563165,N,13.4,20277159
T10270830,10270830,SF BISHOP C BL SF DIV DAM NR BISHOP CA,37.2407648,-118.56539,N,27.8,20277797
T10270872,10270872,MF BISHOP C BL LK SABRINA NR BISHOP CA,37.213822,-118.6103894,N,16.7,20277013
T10270877,10270877,MF BISHOP C BL IT NO 2 RE NR BISHOP CA,37.25437605,-118.5784462,N,31.6,20277795
T10270900,10270900,BIRCH-MCGEE C DIV TO BISHOP C PP NR BISHOP CA,37.2738205,-118.5801136,NA,NA,20277777
T10270960,10270960,COYOTE C NR BISHOP CA,37.31493011,-118.510114,N,25.7,20276745
T10271060,10271060,BISHOP C PP NO 6 CONDUIT NR BISHOP CA,37.3379854,-118.4776134,NA,NA,20277761
T10271200,10271200,BISHOP C AB PP NO 6 NR BISHOP CA,37.34992977,-118.462613,N,104,20277761
T10271210,10271210,BISHOP C BL PP NO 6 NR BISHOP CA (ACTUAL) CA,37.34965199,-118.4623352,N,104,20277761
T10276000,10276000,BIG PINE C NR BIG PINE CA,37.14493125,-118.3153798,N,32.6,20277261
T10276001,10276001,COMBINED Q BIG PINE C & GIROUX DITCH CA,37.14493125,-118.3153798,NA,NA,20277261
T10277400,10277400,OWENS R BL TINEMAHA RE NR BIG PINE CA,37.05298833,-118.2273207,N,1964,20277855
T10277500,10277500,OWENS R NR BIG PINE CA,37.0152113,-118.2245425,N,1976,20265515
T10281500,10281500,OAK C NR INDEPENDENCE CA,36.8332662,-118.2439859,N,26.9,20267019
T10281800,10281800,INDEPENDENCE C BL PINYON C NR INDEPENDENCE CA,36.77854383,-118.2645412,Y,18.1,20267023
T10284800,10284800,INYO C NR LONE PINE CA,36.59771177,-118.183701,N,1.71,20266795
T10285700,10285700,OWENS R A KEELER BRIDGE NR LONE PINE CA,36.5793779,-118.0192532,N,2604,20266801
T10286000,10286000,COTTONWOOD C NR OLANCHA CA,36.43882461,-118.0809189,N,40.1,20267693
T10286001,10286001,COTTONWOOD C NR OLANCHA CA.+ PH CA,36.4388246,-118.0809189,N,NA,20267693
T10287069,10287069,MILL C BL LUNDY LK NR LEE VINING CA,38.0329787,-119.2165424,N,17.1,20286400
T10287070,10287070,MILL C BL LUNDY LK NR MONO LK(ACTUAL) CA,38.0327009,-119.215709,Y,17.1,20286400
T10287145,10287145,UP CONWAY D NR LEE VINING CA,38.04214527,-119.1726516,NA,NA,20286396
T10287195,10287195,LUNDY PP TAILRACE NR LEE VINING CA,38.04270081,-119.1726516,NA,NA,20286396
T10287281,10287281,RUSH C BL GEM LK NR JUNE LK CA,37.75132009,-119.1415343,N,22,20287438
T10287289,10287289,RUSH C BL AGNEW LK NR JUNE LAKE CA,37.7590977,-119.130701,N,23.3,20287432
T10287290,10287290,RUSH C BL AGNEW LK NR JUNE LAKE CA (ACTUAL) CA,37.75881993,-119.130701,N,23.3,20287432
T10287300,10287300,RUSH C PP TAILRACE NR JUNE LAKE CA,37.76631976,-119.1223677,N,NA,20287600
T10287400,10287400,RUSH C AB GRANT LK NR JUNE LK CA,37.80631867,-119.1090349,N,51.3,20287402
T10287655,10287655,LEE VINING C BL SADDLEBAG LK NR LEE VINING CA,37.9643687,-119.2732103,N,4.43,20287270
T10287762,10287762,POOLE PP CONDUIT IT NR LEE VINING CA,37.93575882,-119.2307077,NA,NA,20287584
T10287770,10287770,LEE VINING C BL RHINEDOLLAR DAM NR LEE VINING CA,37.93603659,-119.2309854,N,16.7,20287584
T10287900,10287900,LEE VINING C NR LEE VINING CA,37.9293704,-119.1704278,N,34.9,20287304
T10289000,10289000,VIRGINIA CK NR BRIDGEPORT CA,38.19186474,-119.2101533,N,63.6,8915923
T10289500,10289500,GREEN CK NR BRIDGEPORT CA,38.17380969,-119.2337656,N,19.5,8915933
T10290000,10290000,SUMMERS C NR BRIDGEPORT CA,38.15408779,-119.2593223,N,8.26,8915411
T10290500,10290500,"ROBINSON C AT TWIN LKS OUTLET NR BRIDGEPORT, CA",38.17214225,-119.3246032,N,39.1,8915935
T10291500,10291500,"BUCKEYE CREEK NEAR BRIDGEPORT, CA",38.23880787,-119.3259923,Y,44.1,8915907
T10292000,10292000,"SWAUGER CREEK NEAR BRIDGEPORT, CA",38.28269628,-119.29988,N,52.8,8915871
T10293000,10293000,"E WALKER R NR BRIDGEPORT, CA",38.3276958,-119.2148759,N,359,8915857
T10295200,10295200,W WALKER R A LEAVITT MD NR COLEVILLE CA,38.3304697,-119.5523913,N,73.4,10744570
T10295500,10295500,"L WALKER R NR BRIDGEPORT, CA",38.3607482,-119.4448868,YY,63.1,10744456
T10296000,10296000,"W WALKER R BLW L WALKER R NR COLEVILLE, CA",38.3796366,-119.4501649,N,181,10744424
T10296500,10296500,"W WALKER R NR COLEVILLE, CA",38.51324495,-119.4498872,N,250,946050152
T10303000,10303000,SILVER KING C NR COLEVILLE CA,38.51657651,-119.6010047,N,31.6,8923315
T10303500,10303500,EF CARSON R ASKV NR MARKLEEVILLE CA,38.5749086,-119.634339,N,NA,8923151
T10304500,10304500,"SILVER C BL PENN C NR MARKLEEVILLE, CA",38.59990726,-119.7760107,N,19.6,8924117
T10308200,10308200,E F CARSON R BL MARKLEEVILLE C NR MARKLEEVILLECA,38.7146274,-119.7648985,Y,276,8922715
T10308783,10308783,LEVIATHAN C AB MINE NR MARKLEEVILLE CA,38.7012952,-119.6565614,YY,4.16,8922761
T10308784,10308784,LEVIATHAN MINE ADIT DRAIN NR MARKLEEVILLE CA,38.70407294,-119.6587837,NA,NA,8922761
T103087885,103087885,LEVIATHAN C CHANNEL UNDERDRAIN NR MARKLEEVILLE CA,38.7093506,-119.6623949,NA,NA,8922761
T103087889,103087889,4L C NR MARKLEEVILLE CA,38.7108333,-119.6630556,N,1.14,8922755
T10308789,10308789,LEVIATHAN C AB ASPEN C NR MARKLEEVILLE CA,38.7168505,-119.6601726,N,7.07,8922717
T103087891,103087891,ASPEN C ABV LEVIATHAN MINE NR MARKLEEVILLE CA,38.7086111,-119.648611,YY,0.55,8922743
T103087892,103087892,ASPEN C OVERBURDEN SEEP NR MARKLEEVILLE CA,38.71240619,-119.6540613,NA,0.06,8922727
T10308792,10308792,LEVIATHAN C AB MOUNTAINEER C NR MARKLEEVILLE CA,38.73657257,-119.6451719,N,10.8,8922665
T10308794,10308794,BRYANT C BL MOUNTAINEER C NR MARKLEEVILLE CA,38.73657257,-119.6451719,N,21.4,8922665
T10310000,10310000,"WEST FORK CARSON RIVER AT WOODFORDS, CA",38.76962765,-119.833789,Y,65.4,8924041
T10310300,10310300,"FREDERICKSBURG CANYON CREEK NR FREDERICKSBURG, CA",38.82712805,-119.7998997,N,3.71,8922335
T10336580,10336580,UPPER TRUCKEE R AT S UPPER TRUCKEE RD NR MEYERS CA,38.79629598,-120.0190718,Y,14.09,8943705
T10336600,10336600,UP TRUCKEE R NR MEYERS CA,38.84296293,-120.0246274,Y,33.1,8943685
T103366092,103366092,UPPER TRUCKEE R AT HWY 50 ABOVE MEYERS CA,38.8485185,-120.0271275,N,34.28,8943677
T10336610,10336610,UPPER TRUCKEE RIVER AT SOUTH LAKE TAHOE CALIF,38.9224078,-119.9915706,N,54.9,8944439
T10336626,10336626,TAYLOR C NR CAMP RICHARDSON CA,38.92157444,-120.0612952,N,16.7,8943577
T10336645,10336645,GENERAL C NR MEEKS BAY CA,39.05185197,-120.1185209,Y,7.44,8941733
T10336660,10336660,BLACKWOOD C NR TAHOE CITY CA,39.10740708,-120.1621352,Y,11.2,8941693
T10336674,10336674,WARD C BL CONFLUENCE NR TAHOE CITY CA,39.1407401,-120.2121377,N,4.96,8941685
T10336675,10336675,WARD C A STANFORD ROCK TRAIL XING NR TAHOE CITY CA,39.1368513,-120.1810255,N,8.97,8941685
T10336676,10336676,WARD C AT HWY 89 NR TAHOE PINES CA,39.1321292,-120.1576913,Y,9.7,8941685
T10336689,10336689,SNOW C A TAHOE VISTA CA,39.23824014,-120.0396357,N,4.43,8941653
T10336770,10336770,TROUT CK AT USFS RD 12N01 NR MEYERS CA,38.8632405,-119.9582367,Y,7.4,8944527
T10336775,10336775,TROUT CK AT PIONEER TRAIL NR SOUTH LAKE TAHOE CA,38.90339444,-119.9688917,N,23.7,8944479
T10336780,10336780,TROUT CREEK NR TAHOE VALLEY CALIF,38.9199077,-119.9724036,Y,36.7,8944453
T10336790,10336790,TROUT C A SOUTH LAKE TAHOE CA,38.93213,-119.9787926,N,40.4,8945207
T10337500,10337500,TRUCKEE R A TAHOE CITY CA,39.16629577,-120.1443586,N,507,8934074
T10338000,10338000,TRUCKEE R NR TRUCKEE CA,39.2962952,-120.2054752,N,553,8933958
T10338500,10338500,DONNER C A DONNER LK NR TRUCKEE CA,39.3235172,-120.2343654,N,14.3,8933876
T10338700,10338700,DONNER C AT HWY 89 NR TRUCKEE CA,39.32101739,-120.2079759,N,29.1,8933890
T10339400,10339400,MARTIS C NR TRUCKEE CA,39.32879577,-120.1176964,N,39.9,8933858
T10339419,10339419,TRUCKEE R AB PROSSER C NR TRUCKEE CA,39.36851817,-120.1149198,N,644,8933772
T10340500,10340500,PROSSER C BL PROSSER C DAM NR TRUCKEE CA,39.37324026,-120.131587,Y,52.9,8933736
T10341950,10341950,LITTLE TRUCKEE R BL DIV DAM NR SIERRAVILLE CA,39.49129328,-120.3285386,N,36.1,8933152
T10342000,10342000,LITTLE TRUCKEE R NR HOBART MILLS CA,39.50129393,-120.2774263,N,36.5,8930290
T10343000,10343000,INDEPENDENCE C NR TRUCKEE CA,39.4565717,-120.2871477,N,8.1,8933376
T10343500,10343500,SAGEHEN CR NR TRUCKEE CA,39.43157246,-120.2379793,Y,10.5,8933522
T10344400,10344400,LITTLE TRUCKEE R AB BOCA RES NR TRUCKEE CA,39.43574106,-120.084366,N,146,8933494
T10344500,10344500,LITTLE TRUCKEE R BL BOCA DAM NR TRUCKEE CA,39.38685177,-120.0954757,N,173,8933684
T10344505,10344505,TRUCKEE R A BOCA BRIDGE NR TRUCKEE CA,39.38518517,-120.0876977,N,872,8933706
T10345700,10345700,BRONCO CREEK AT FLORISTON CA,39.38379693,-120.020752,N,15.4,8933674
T10346000,10346000,TRUCKEE R A FARAD CA,39.42796385,-120.0340873,N,932,8933532
T10347300,10347300,"DOG C NR VERDI, NV",39.5651863,-120.0246453,N,16.2,8930230
T10354000,10354000,LONG VALLEY C NR SCOTTS CA,39.85546105,-120.0677023,N,125,20298765
T10354700,10354700,MILL C A MILFORD CA,40.17073367,-120.3716042,N,2.26,20296229
T10356500,10356500,SUSAN R A SUSANVILLE CA,40.41739494,-120.6718958,N,184,20296767
T10358470,10358470,WILLOW C TRIB NR SUSANVILLE CA,40.49656337,-120.5593937,N,3.08,20295297
T10358500,10358500,WILLOW C NR SUSANVILLE CA,40.48906373,-120.5371707,N,90,20296737
T10359250,10359250,PINE C NR WESTWOOD CA,40.57377742,-121.1060766,N,24.8,20291233
T10359300,10359300,PINE C NR SUSANVILLE CA,40.66489351,-120.7913464,N,226,20291957
T10360230,10360230,EAGLE C A EAGLEVILLE CA,41.3123957,-120.1252193,N,6.36,20319730
T10360900,10360900,BIDWELL C BL MILL C NR FORT BIDWELL CA,41.8823902,-120.1749508,Y,25.6,20314584
T11010900,11010900,WILSON C TRIB NR DULZURA CA,32.7228334,-116.7025197,N,0.61,20325239
T11012500,11012500,CAMPO C NR CAMPO CA,32.591172,-116.525572,N,85,20326431
T11013000,11013000,TIJUANA R NR DULZURA CA,32.5656161,-116.7750194,N,481,20326435
T11013500,11013500,TIJUANA R NR NESTOR CA,32.55172325,-117.0841943,N,1695,948070380
T11014000,11014000,JAMUL C NR JAMUL CA,32.6375566,-116.8841893,N,70.1,20334508
T11015000,11015000,SWEETWATER R NR DESCANSO CA,32.8347737,-116.6230747,N,45.4,20334440
T11015001,11015001,SWEETWATER R NR DESCANSO CA.+ DIV CA,32.83477372,-116.6230747,NA,45.4,20334440
T11022000,11022000,SAN VICENTE C A SVD A FOSTER CA,32.91115901,-116.9272497,N,74.2,20334422
T11022200,11022200,LOS COCHES C NR LAKESIDE CA,32.83616156,-116.9003035,N,12.2,20332986
T11022350,11022350,FORESTER C A EL CAJON CA,32.82116107,-116.9764165,N,21.3,20333038
T11022480,11022480,SAN DIEGO R A MAST RD NR SANTEE CA,32.84032675,-117.0258627,N,368,20331402
T11022500,11022500,SAN DIEGO R NR SANTEE CA,32.82477143,-117.0555858,N,377,20331434
T11023000,11023000,SAN DIEGO R A FASHION VALLEY AT SAN DIEGO CA,32.76504998,-117.1686449,N,429,20331516
T11023250,11023250,POWAY C NR POWAY CA,32.95365699,-117.0147528,Y,7.92,20331142
T11023310,11023310,RATTLESNAKE C A POWAY CA,32.9519902,-117.0497537,Y,8.13,20331150
T11023320,11023320,POMERADO C A POWAY RD NR POWAY CA,32.95199018,-117.0641985,N,4.14,20331162
T11023325,11023325,BEELER C A POMERADO RD NR POWAY CA,32.93976827,-117.0666984,Y,5.46,20331242
T11023330,11023330,LOS PENASQUITOS C BL POWAY C NR POWAY CA,32.94921245,-117.070032,N,31.2,20331178
T11023340,11023340,LOS PENASQUITOS C NR POWAY CA,32.9431013,-117.1216999,N,42.1,20331196
T11025500,11025500,SANTA YSABEL C NR RAMONA CA,33.1069866,-116.866137,N,112,20330878
T11026000,11026000,SANTA YSABEL C NR SAN PASQUAL CA,33.08615349,-116.9164166,N,128,20330890
T11027000,11027000,GUEJITO C NR SAN PASQUAL CA,33.11587431,-116.9530841,N,22.5,20330872
T11027500,11027500,GUEJITO C A SAN PASQUAL CA,33.09309723,-116.9633624,N,27.7,20330886
T11028500,11028500,SANTA MARIA C NR RAMONA CA,33.0522655,-116.9455844,N,57.6,20330908
T11029000,11029000,SAN DIEGUITO R NR SAN PASQUAL CA,33.06670881,-117.0355868,N,249,20328616
T11030500,11030500,SAN DIEGUITO R NR DEL MAR,32.9775445,-117.2305915,N,338,20331892
T11031500,11031500,AGUA CALIENTE C NR WARNER SPRINGS CA,33.28864832,-116.6539084,Y,19,20344355
T11033000,11033000,WF SAN LUIS REY R NR WARNER SPRINGS CA,33.29670362,-116.759744,Y,25.5,20343211
T11035000,11035000,SAN LUIS REY R A LK HENSHAW NR MG CA,33.23892774,-116.7627999,N,206,20344395
T11037650,11037650,PAUMA VALLEY WC DIV NR PAUMA VALLEY CA,33.33753386,-116.9703048,NA,NA,20343093
T11037700,11037700,PAUMA C NR PAUMA VALLEY CA,33.33614497,-116.9744716,Y,11,20343093
T11037701,11037701,PAUMA C NR PAUMA VALLEY CA (COMBINED) CA,33.33614497,-116.9744716,NA,11,20343093
T11039100,11039100,SAN LUIS REY R TRIB NR PALA CA,33.36253264,-117.0494735,N,1.01,20341497
T11039800,11039800,SAN LUIS REY R A COUSER CYN BR NR PALA CA,33.34058822,-117.1314207,N,364,20342481
T11040000,11040000,SAN LUIS REY R AT MONSERATE NARROWS CA,33.33725495,-117.1361431,N,373,20342485
T11040200,11040200,KEYS C TRIB A VALLEY CENTER CA,33.229203,-117.0366967,N,7.65,20341767
T11041000,11041000,SAN LUIS REY R NR BONSALL CA,33.25364594,-117.2475354,N,513,20342507
T11042000,11042000,SAN LUIS REY R A OCEANSIDE CA,33.21809119,-117.3603162,N,557,20342539
T11042400,11042400,TEMECULA C NR AGUANGA CA,33.45919759,-116.9236357,N,131,22549471
T11042490,11042490,WILSON C AB VAIL LK NR RADEC CA,33.48669687,-116.9111352,N,122,22549409
T11042520,11042520,TEMECULA C A NIGGER CYN NR TEMECULA CA,33.49447429,-116.9841922,N,320,22549393
T11042631,11042631,PECHANGA C NR TEMECULA CA,33.46416667,-117.1238889,N,13.1,22549093
T11042700,11042700,MURRIETA C NR MURRIETA CA,33.55558075,-117.2314239,N,30,22545337
T11042800,11042800,WARM SPRINGS C NR MURRIETA CA,33.53224867,-117.1769771,N,55.4,22547091
T11042900,11042900,SANTA GERTRUDIS C NR TEMECULA CA,33.52447127,-117.1647544,N,90.2,948070502
T11043000,11043000,MURRIETA C A TEMECULA CA,33.47975066,-117.1439203,N,222,22549073
T11044000,11044000,SANTA MARGARITA R NR TEMECULA CA,33.47391752,-117.1422536,N,588,22549075
T11044250,11044250,RAINBOW C NR FALLBROOK CA,33.40753006,-117.200867,N,10.3,22548475
T11044300,11044300,SANTA MARGARITA R A FPUD SUMP NR FALLBROOK CA,33.41364059,-117.2411462,N,620,22548457
T11044350,11044350,SANDIA C NR FALLBROOK CA,33.42447348,-117.249202,N,21.1,22548429
T11044500,11044500,"SANTA MARGARITA R NR FALLBROOK,CALIF.",33.39836319,-117.2630914,N,644,22549107
T11044800,11044800,DE LUZ C NR DE LUZ CA,33.4197511,-117.3217044,N,33,22548441
T11044900,11044900,DE LUZ C NR FALLBROOK CA,33.3697528,-117.3225376,N,47.5,22549113
T11045300,11045300,FALLBROOK C NR FALLBROOK CA,33.34697584,-117.3178152,N,6.97,22549115
T11045600,11045600,ONEILL LAKE OUTLET CH NR FALLBROOK CA,33.3250321,-117.3255931,NA,9.77,22548547
T11045700,11045700,ONEILL LK SPILL CH NR FALLBROOK CA,33.32892087,-117.3272599,NA,9.77,22548545
T11046000,11046000,SANTA MARGARITA R A YSIDORA CA,33.3111436,-117.3472604,N,723,22549121
T11046090,11046090,LAS FLORES C A LAS PULGAS CYN NR OCEANSIDE CA,33.31864303,-117.4378185,N,15.6,20351081
T11046100,11046100,LAS FLORES C NR OCEANSIDE CA,33.29225499,-117.4567077,N,26.6,20351631
T11046200,11046200,SAN ONOFRE C NR SAN ONOFRE CA,33.3897515,-117.514766,N,34.6,20351621
T11046250,11046250,SAN ONOFRE C A SAN ONOFRE CA,33.38391854,-117.5742128,N,42.2,20351625
T11046300,11046300,SAN MATEO C NR SAN CLEMENTE CA,33.47085987,-117.4730986,Y,80.8,20351605
T11046350,11046350,CRISTIANITOS C NR SAN CLEMENTE CA,33.44919422,-117.5711578,N,29,20350845
T11046360,11046360,CRISTIANITOS C AB SAN MATEO C NR SAN CLEMENTE CA,33.42641717,-117.5703242,N,31.6,20350869
T11046370,11046370,SAN MATEO C A SAN ONOFRE CA,33.39114058,-117.5906024,N,132,20351619
T11046500,11046500,SAN JUAN C NR SAN JUAN CAPISTRANO CA,33.51891459,-117.6250493,Y,106,20350533
T11046501,11046501,SAN JUAN C AND CWC CANAL NR SAN JUAN CAPISTRANO CA,33.49169349,-117.6631063,NA,117,948070434
T11046530,11046530,SAN JUAN C AT LA NOVIA ST BR AT SAN JUAN CAPIS CA,33.5025264,-117.6481058,N,109,20348919
T11046550,11046550,SAN JUAN C AT SAN JUAN CAPISTRANO CA,33.49169349,-117.6631063,N,117,948070434
T11047000,11047000,ARROYO TRABUCO NR SAN JUAN CAPISTRANO CA,33.52669241,-117.6697733,N,35.7,20350529
T11047200,11047200,OSO C A CROWN VALLEY PKWY NR MISSION VIEJO CA,33.55808028,-117.6767179,N,14,20348813
T11047300,11047300,ARROYO TRABUCO A SAN JUAN CAPISTRANO CA,33.49835999,-117.6658843,N,54.1,20350681
T11047500,11047500,ALISO C A EL TORO CA,33.62613356,-117.6850513,N,7.91,20350507
T11047700,11047700,ALISO C A SOUTH LAGUNA CA,33.51197121,-117.747832,N,34.4,20350539
T11048000,11048000,PETERS CYN WASH NR TUSTIN CA,33.67502016,-117.835611,N,92,20355396
T11048200,11048200,AGUA CHINON WASH NR IRVINE CA,33.67890959,-117.7142187,Y,2.85,20355400
T11048400,11048400,MARSHBURN CHANNEL NR IRVINE CA,33.68390946,-117.7453307,NA,NA,20357218
T11048500,11048500,SAN DIEGO C AT CULVER DR NR IRVINE CA,33.68168682,-117.8094992,N,41.8,20355428
T11048530,11048530,EL MODINA-IRVINE CH A MYFORD RD NR TUSTIN CA,33.7136302,-117.8011654,NA,NA,20355332
T11048550,11048550,SAN DIEGO C A LANE RD NR IRVINE CA,33.672798,-117.8358888,N,NA,20355412
T11048553,11048553,SAND CYN C A IRVINE CA,33.65724307,-117.8275553,Y,7.06,20355480
T11048555,11048555,SAN DIEGO C A CAMPUS DR NR IRVINE CA,33.65557629,-117.8456113,N,111,20355472
T11048600,11048600,BONITA C A IRVINE CA,33.64502095,-117.8611673,N,5.39,20355520
T11049500,11049500,SCE SANTA ANA R CN AB PP3 NR MENTONE CA,34.11362248,-117.0964244,NA,NA,22558244
T11051499,11051499,SANTA ANA R NR MENTONE (RIVER ONLY) CA,34.10834489,-117.1005912,N,210,22558244
T11051500,11051500,SANTA ANA R NR MENTONE CA,34.10834489,-117.1005911,N,210,22558244
T11051501,11051501,SANTA ANA R NR MENTONE CN + CN CA,34.10834489,-117.1005911,NA,NA,22558244
T11051502,11051502,SAR SUPP GAGE NR MENTONE CA,34.10834489,-117.1005912,NA,NA,22558244
T11051600,11051600,SANTA ANA R SPREADING DIV NR MENTONE CA,34.10334508,-117.111147,NA,NA,22555976
T11052500,11052500,MILL C POWER CANALS 2 AND 3 NR YUCAIPA CA,34.08973426,-117.0144759,NA,NA,22556110
T11052504,11052504,MILL C CANALS NR YUCAIPA CA,34.09084538,-117.0347546,NA,NA,22556090
T11053000,11053000,MILL C POWER CN NO 1 NR YUCAIPA CA,34.09112315,-117.0372547,NA,NA,22556090
T11054000,11054000,MILL C NR YUCAIPA CA,34.09084538,-117.0375325,N,42.4,22556090
T11054001,11054001,MILL C NR YUCAIPA CA.+ CANALS CA,34.09084538,-117.0375325,NA,NA,22556090
T11054600,11054600,CRAFTON CN NR MENTONE CA,34.06862406,-117.0989234,NA,NA,22557932
T11055000,11055000,MILL C NR MENTONE CA,34.0777904,-117.0992014,N,49.1,22556158
T11055350,11055350,PLUNGE C UP DIV NR EAST HIGHLANDS CA,34.13973269,-117.1494826,NA,NA,22555782
T11055351,11055351,PLUNGE C UP AND MID DIV NR FONTANA CA,34.13973269,-117.1497604,NA,NA,22555782
T11055400,11055400,PLUNGE C MID DIV NR EAST HIGHLANDS CA,34.1233444,-117.140593,NA,NA,22555782
T11055500,11055500,PLUNGE C NR EAST HIGHLANDS CA,34.11834458,-117.141704,N,16.9,22555860
T11055501,11055501,PLUNGE C NR EAST HIGHLANDS AND CANALS CA,34.11834458,-117.1417041,NA,16.9,22555860
T11055700,11055700,CITY C WATER CO CN NR HIGHLAND CA,34.14362145,-117.1889285,NA,NA,22555756
T11055800,11055800,CITY C NR HIGHLAND CA,34.1438992,-117.1886507,N,19.6,22555756
T11055801,11055801,CITY C NR HIGHLAND CA.+ CANALS CA,34.14389921,-117.1886507,NA,19.6,22555756
T11056000,11056000,SANTA ANA R NR SAN BERNARDINO CA,34.08195723,-117.2558749,N,329,948070563
T11056200,11056200,SANTA ANA R A WATERMAN AVE AT SAN BERNARDINO CA,34.07056863,-117.2789312,N,359,22556176
T11056500,11056500,LITTLE SAN GORGONIO C NR BEAUMONT CA,34.0291802,-116.946137,N,1.74,22559032
T11057000,11057000,SAN TIMOTEO C NR REDLANDS CA,34.03307017,-117.2089279,N,118,22557960
T11057500,11057500,SAN TIMOTEO C NR LOMA LINDA CA,34.0614024,-117.2675419,N,125,22557960
T11058500,11058500,E TWIN C NR ARROWHEAD SPRINGS CA,34.17917556,-117.2655982,N,8.8,22555342
T11058600,11058600,WATERMAN CANYON CREEK NR ARROWHEAD SPRINGS CA,34.1858333,-117.2722222,Y,4.82,22555344
T11059000,11059000,WARM C FLOODWAY A SAN BERNARDINO CA,34.09584545,-117.2758757,N,47.8,22556064
T11059100,11059100,SAN BERNARDINO WATER QUALITY CONTROL PLANT CA,34.07390177,-117.2875426,NA,NA,22558072
T11059300,11059300,SANTA ANA R A E ST NR SAN BERNARDINO CA,34.06501313,-117.3003208,N,541,22557930
T11060300,11060300,LYTLE C (EAST CHANNEL) A SAN BERNARDINO CA,34.09723406,-117.3139326,N,NA,22557894
T11060400,11060400,WARM C NR SAN BERNARDINO CA,34.07834596,-117.3003209,N,11,22557922
T11060500,11060500,MEEKS AND DALEY CN NR COLTON CA,34.07973479,-117.3008765,NA,NA,22557922
T11060900,11060900,SCE LYTLE C CONDUIT NR FONTANA CA,34.20278567,-117.4494936,NA,NA,22558184
T11060901,11060901,LYTLE CON & INFIL LINE CA,34.20278567,-117.4494936,NA,NA,22558184
T11061000,11061000,FONTANA WATER CO INFILTRATION LINE NR FONTANA CA,34.20278567,-117.4494936,NA,NA,22558184
T11062000,11062000,LYTLE C NR FONTANA CA,34.2122298,-117.458105,N,46.6,22554826
T11062001,11062001,LYTLE+BRLNE+COND+INF - W27 CA,34.2122298,-117.458105,N,NA,22554826
T11062200,11062200,FONTANA UWC LYTLE C RETURN FLOW CHANNEL CA,34.20306344,-117.4494936,NA,NA,22558184
T11062300,11062300,FONTANA UWC BREEDLINE NR FONTANA CA,34.20306344,-117.4494936,NA,NA,22558184
T11062399,11062399,FONTANA WATER CO SURFACE DIV WEIR 2 NR FONTANA CA,34.20278567,-117.4494936,NA,NA,22558184
T11062400,11062400,FONTANA WATER CO SURFACE DIV NR FONTANA CA,34.20306344,-117.4494936,NA,NA,22558184
T11062401,11062401,LYTLE C + BREEDLINE NR FONTANA CA,34.20306344,-117.4494936,NA,NA,22558184
T11062411,11062411,LYTLE + BRLNE+COND+INF CA,34.20306344,-117.4494936,NA,NA,22558184
T11062450,11062450,FONTANA PH FOREBAY SPILLWAY NR FONTANA CA,34.20278567,-117.4492158,NA,NA,22558184
T11063000,11063000,CAJON C NR KEENBROOK CA,34.26695013,-117.4600497,Y,40.6,22554630
T11063500,11063500,LONE PINE C NR KEENBROOK CA,34.2663946,-117.4639388,N,15.1,22557742
T11063510,11063510,CAJON C BL LONE PINE C NR KEENBROOK CA,34.2633392,-117.4669944,N,56.5,22557744
T11063680,11063680,DEVIL CYN C NR SAN BERNARDINO CA,34.20834107,-117.331434,N,5.49,22554872
T11063682,11063682,EB CA AQUEDUCT A DEVIL CYN PP NR SAN BERNARDINO CA,34.20556339,-117.3344897,NA,NA,22557796
T11064000,11064000,LYTLE C E CHANNEL A SAN BERNARDINO CA,34.09723406,-117.3139326,N,NA,22557894
T11065000,11065000,LYTLE C A COLTON CA,34.07890146,-117.3055989,N,186,22557940
T11065800,11065800,WARM C NR COLTON CA,34.06917958,-117.3086545,N,192,22557922
T11065801,11065801,WARM C NR COLTON + DIV CA,34.06917958,-117.3086545,NA,259,22557922
T11066100,11066100,LYTLE C W CHANNEL A COLTON CA,34.06667957,-117.3217105,NA,NA,22557928
T11066440,11066440,SANTA ANA R A MISSION BLVD AT RIVERSIDE CA,33.99112582,-117.3942124,N,808,948070241
T11066460,11066460,SANTA ANA R A MWD CROSSING CA,33.96862566,-117.4483806,N,852,22563032
T11066478,11066478,RIVERSIDE WQCP WEIR NO 1 CA,33.96473675,-117.4581031,NA,NA,22563032
T11066479,11066479,RIVERSIDE WQCP WEIR NO 2 CA,33.96473675,-117.4581031,NA,NA,22563032
T11066480,11066480,RIVERSIDE WATER QUALITY CONTROL PLANT CA,33.96473675,-117.4581031,NA,NA,22563032
T11066500,11066500,SANTA ANA R A RIVERSIDE NAROWS NR ARLINGTON CA,33.96473667,-117.466159,N,853,22563032
T11067000,11067000,DAY C NR ETIWANDA CA,34.18500809,-117.539774,N,4.56,22555060
T11067001,11067001,DAY C NR ETIWANDA CA.+ CN CA,34.18500809,-117.539774,NA,4.56,22555060
T11067890,11067890,SANTA ANA R A PRADO PARK NR CORONA CA,33.92834791,-117.5964401,N,1010,22563072
T11069200,11069200,LK HEMET WC UP CN NR SAN JACINTO CA,33.73890959,-116.825854,NA,NA,22535256
T11069300,11069300,WF SAN JACINTO TRIB NR VALLE VISTA CA,33.72224358,-116.8008536,N,2.2,22536114
T11069500,11069500,SAN JACINTO R NR SAN JACINTO,33.73807629,-116.8339098,N,142,22535256
T11069501,11069501,SAN JACINTO R NR SAN JACINTO + CANALS CA,33.73807629,-116.8339098,NA,NA,22535256
T11070000,11070000,BAUTISTA C NR HEMET CA,33.69446686,-116.8508549,N,39.6,22535350
T11070020,11070020,BAUTISTA C AT HD OF FLOOD CHANNEL NR HEMET CA,33.7116884,-116.868633,N,47.6,22536218
T11070050,11070050,BAUTISTA C A VALLE VISTA CA,33.7344653,-116.8933556,N,48.5,22536106
T11070150,11070150,SAN JACINTO R AB STATE STREET NR SAN JACINTO CA,33.8214075,-116.973358,N,252,22537332
T11070210,11070210,SAN JACINTO R A RAMONA EXPRESSWAY NR LAKEVIEW CA,33.83974065,-117.135866,N,365,22534640
T11070262,11070262,PERRIS VALLEY STORM DR A LAT B A PERRIS BLV N CA,33.85862933,-117.2264265,NA,10.6,22532830
T11070270,11070270,PERRIS VALLEY STORM DR A NUEVO RD NR PERRIS CA,33.80113024,-117.2061469,NA,93.3,22534638
T11070365,11070365,SAN JACINTO R NR SUN CITY CA,33.74613114,-117.231703,N,560,22532938
T11070375,11070375,SAN JACINTO R A RR CYN WEIR NR ELSINORE CA,33.73613136,-117.2530929,N,562,22534654
T11070465,11070465,SALT C A MURRIETA RD NR SUN CITY CA,33.6941882,-117.2055903,N,116,22532978
T11070475,11070475,SALT C A RR CYN RES NR ELSINORE CA,33.67835518,-117.235036,N,122,22532978
T11070500,11070500,SAN JACINTO R NR ELSINORE CA,33.66418858,-117.293927,N,723,22534666
T11072000,11072000,TEMESCAL C NR CORONA CA,33.84140539,-117.5111585,N,164,22563156
T11072100,11072100,TEMESCAL C AB MAIN ST A CORONA CA,33.88918212,-117.5628274,N,224,22560716
T11072200,11072200,TEMESCAL C A CORONA CA,33.89612638,-117.5814392,N,249,22563090
T11073000,11073000,SAN ANTONIO C NR CLAREMONT CA,34.21556184,-117.6686665,N,17.1,22554788
T11073001,11073001,SAN ANTONIO C NR CLAREMONT + CN CA,34.21611738,-117.6686665,Y,NA,22554788
T11073200,11073200,SAN ANTONIO C BL SAN ANTONIO DAM CA,34.15723021,-117.6814444,N,26.9,22555822
T11073300,11073300,SAN ANTONIO C A RIVERSIDE DR NR CHINO CA,34.01862319,-117.7306118,N,36.6,22557914
T11073360,11073360,CHINO C A SCHAEFER AVENUE NR CHINO CA,34.00390144,-117.7270006,N,48.9,22556372
T11073470,11073470,CUCAMONGA C NR UPLAND CA,34.1794521,-117.628943,Y,9.68,22555310
T11073493,11073493,W BR CUCAMONGA CHANNEL AB ELY PERC BASIN A ONTARIO,34.0375119,-117.6200532,N,6.01,22556262
T11073495,11073495,CUCAMONGA C NR MIRA LOMA CA,33.9827912,-117.5994966,N,75.8,22563070
T11073500,11073500,CHINO C NR PRADO CA,33.89640403,-117.6431076,N,218,22560680
T11074000,11074000,SANTA ANA R BL PRADO DAM CA,33.88334875,-117.6453296,N,2258,22563116
T11074500,11074500,SANTA ANA R A COUNTY LINE BL PRADO DAM CA,33.87057119,-117.6722746,N,1510,22560768
T11075600,11075600,SANTA ANA R A IMPERIAL HWY NR ANAHEIM CA,33.85640449,-117.7906112,N,1544,22563160
T11075620,11075620,SANTA ANA R SPRD DIV BL IMPERIAL HWY NR ANA CA,33.85640444,-117.8008893,NA,NA,22563160
T11075720,11075720,CARBON C BL CARBON CYN DAM CA,33.91334748,-117.8425584,N,19.5,22527369
T11075730,11075730,CARBON C A OLINDA CA,33.88890353,-117.8453358,N,19.7,22527369
T11075740,11075740,CARBON C NR YORBA LINDA CA,33.88945908,-117.8453358,N,20.1,22527369
T11075755,11075755,SANTA ANA R A BALL RD AT ANAHEIM CA,33.81668264,-117.8722797,N,1587,22560942
T11075800,11075800,SANTIAGO C A MODJESKA CA,33.71279725,-117.6450497,N,12.5,22561346
T11077000,11077000,SANTIAGO C NR VILLA PARK CA,33.82279419,-117.7767213,Y,84.6,22563182
T11077001,11077001,SANTIAGO C + DIV NR VILLA PARK CA,33.82279419,-117.7767213,NA,83.8,22563182
T11077500,11077500,SANTIAGO C A SANTA ANA CA,33.7702946,-117.8845014,N,98.6,22563210
T11078000,11078000,SANTA ANA R A SANTA ANA CA,33.75112815,-117.9083906,N,1700,22563212
T11080000,11080000,EF SAN GABRIEL R A CAMP BONITA CA,34.23056063,-117.7689471,N,58.2,22524643
T11080500,11080500,EF SAN GABRIEL R NR CAMP BONITA CA,34.23583798,-117.8058928,Y,84.6,22522855
T11081000,11081000,BEAR C NR CAMP RINCON CA,34.24167055,-117.8856177,N,28.2,22524629
T11081500,11081500,NF SAN GABRIEL R A CAMP RINCON CA,34.24722607,-117.8647837,N,18.6,22524631
T11082000,11082000,WF SAN GABRIEL R A CAMP RINCON CA,34.24111517,-117.8633948,Y,104,22524649
T11083500,11083500,SAN GABRIEL R NR AZUSA CA,34.16972858,-117.8886732,N,214,22524699
T11084000,11084000,ROGERS C NR AZUSA CA,34.16528418,-117.9064516,N,6.64,22524683
T11084500,11084500,FISH C NR DUARTE CA,34.1658396,-117.92423,Y,6.36,22524697
T11085000,11085000,SAN GABRIEL R BL SANTA FE DAM NR BALDWIN PK CA,34.11223019,-117.9695092,N,236,22524845
T11086000,11086000,DALTON C NR GLENDORA CA,34.1583404,-117.8286711,N,7.24,22523061
T11086300,11086300,SAN DIMAS C BL SAN DIMAS DAM CA,34.15278536,-117.7725581,N,16.3,22524711
T11086400,11086400,SAN DIMAS C NR SAN DIMAS CA,34.14528558,-117.7767249,N,18.3,22523137
T11086500,11086500,LITTLE DALTON C NR GLENDORA CA,34.1675067,-117.8383937,Y,2.72,22524703
T11086990,11086990,SAN JOSE C NR EL MONTE CA,34.0319553,-118.0120106,N,87.8,22520999
T11087020,11087020,SAN GABRIEL R AB WHITTIER NARROWS DAM CA,34.03417767,-118.0381225,N,442,22521721
T11087100,11087100,RIO HONDO FLD FLOW CHAN AT WHITTIER NARROWS DAM CA,34.02417834,-118.0703457,NA,NA,22515026
T11087195,11087195,SAN JOSE C NR WHITTIER CA,34.02362249,-118.0356224,N,88.7,22521007
T11087500,11087500,SAN GABRIEL R A PICO CA,34.01306761,-118.0642344,N,447,22521027
T11088000,11088000,SAN GABRIEL R A SPRING ST NR LOS ALAMITOS CA,33.81196059,-118.0908983,N,472,22525157
T11088500,11088500,BREA C BL BREA DAM NR FULLERTON CA,33.88779206,-117.9264496,N,21.6,22527375
T11089000,11089000,BREA C A FULLERTON CA,33.87362567,-117.9258937,N,23.6,22525745
T11089500,11089500,FULLERTON C BL FULLERTON DAM NR BREA CA,33.89584765,-117.8861706,N,4.94,22527373
T11090000,11090000,FULLERTON C A FULLERTON CA,33.87279245,-117.9070042,N,7.5,22525749
T11090200,11090200,FULLERTON C A RICHMAN AVE AT FULLERTON CA,33.86251474,-117.9328381,N,12.1,22525749
T11090500,11090500,COYOTE C NR ARTESIA CA,33.83890426,-118.0603421,N,120,22524985
T11090700,11090700,COYOTE C A LOS ALAMITOS CA,33.81057157,-118.0753421,N,150,22525001
T11092450,11092450,LOS ANGELES R A SEPULVEDA DAM CA,34.16167247,-118.466749,N,158,22515812
T11093000,11093000,PACOIMA C NR SAN FERNANDO CA,34.33527727,-118.398137,N,28.3,22514292
T11093490,11093490,NF MILL C NR LA CANADA CA,34.31750019,-118.1342384,N,5.8,22514320
T11094000,11094000,TUJUNGA C BL MILL C NR COLBY RANCH CA,34.30916717,-118.1453499,Y,64.9,22514414
T11094500,11094500,TUJUNGA C NR COLBY RANCH CA,34.30611173,-118.1575726,N,67.5,22514424
T11095000,11095000,FOX C NR COLBY RANCH CA,34.30833385,-118.1786845,N,9.22,22514428
T11095500,11095500,BIG TUJUNGA C NR SUNLAND CA,34.30055637,-118.2686878,Y,106,22514458
T11096000,11096000,HAINES C NR TUJUNGA CA,34.2638912,-118.2717433,N,1.26,22515766
T11096500,11096500,LITTLE TUJUNGA C NR SAN FERNANDO CA,34.27444641,-118.3725805,N,21.1,22515740
T11097000,11097000,BIG TUJUNGA C BL HANSEN DAM CA,34.25361395,-118.38897,N,153,22515762
T11097500,11097500,LOS ANGELES R A LOS ANGELES CA,34.08112164,-118.2275735,N,514,22515824
T11098000,11098000,ARROYO SECO NR PASADENA CA,34.22222629,-118.1775727,Y,16,22514774
T11098500,11098500,LOS ANGELES R NR DOWNEY CA,33.94945899,-118.1739592,N,599,22518268
T11099500,11099500,SAWPIT C NR MONROVIA CA,34.1730612,-117.9892322,N,5.3,22516662
T11100000,11100000,SANTA ANITA C NR SIERRA MADRE CA,34.1916716,-118.0172888,Y,9.71,22514894
T11100500,11100500,LITTLE SANTA ANITA C NR SIERRA MADRE CA,34.18694964,-118.0439565,Y,1.84,22515816
T11101000,11101000,EATON C NR PASADENA CA,34.1936162,-118.1045143,N,6.47,22514928
T11101250,11101250,RIO HONDO AB WHITTIER NARROWS DAM CA,34.05834368,-118.0717348,N,91.2,22515826
T11101500,11101500,RIO HONDO NR MONTEBELLO CA,34.03334468,-118.0736792,N,116,22515018
T11102000,11102000,MISSION C NR MONTEBELLO CA,34.02917814,-118.0695124,N,4.16,22515020
T11102300,11102300,RIO HONDO BL WHITTIER NARROWS DAM CA,34.01667881,-118.0884018,N,124,22515830
T11102500,11102500,RIO HONDO NR DOWNEY CA,33.94668115,-118.1628477,N,143,22518270
T11103000,11103000,LOS ANGELES R A LONG BEACH CA,33.81723937,-118.2064584,N,827,22518274
T11103500,11103500,BALLONA C NR CULVER CITY CA,33.99834531,-118.4022996,N,89.5,20366291
T11104000,11104000,TOPANGA C NR TOPANGA BCH CA,34.06445228,-118.587028,N,18,20365153
T11105500,11105500,MALIBU C AT CRATER CAMP NR CALABASAS CA,34.07778456,-118.7017534,N,105,20365093
T11105850,11105850,ARROYO SIMI NR SIMI CA,34.2730584,-118.7878711,N,70.6,17563896
T11106000,11106000,CALLEGUAS C A CAMARILLO,34.21611598,-119.0153793,N,168,17562594
T11106400,11106400,CONEJO CREEK ABOVE HIGHWAY 101 CA,34.2366711,-118.9648221,N,64.2,17564004
T11106550,11106550,CALLEGUAS C NR CAMARILLO CA,34.17944989,-119.0398242,N,248,17562626
T11107000,11107000,HONDA BARRANCA NR SOMIS CA,34.2688922,-119.0498254,N,2.57,17562544
T11107745,11107745,SANTA CLARA R AB RR STATION NR LANG CA,34.42971779,-118.3553578,N,157,17574557
T11107860,11107860,BOUQUET C NR SAUGUS CA,34.44888388,-118.507029,N,51.6,17574375
T11108000,11108000,SANTA CLARA R NR SAUGUS CA,34.42610707,-118.5867537,N,411,17574541
T11108075,11108075,CASTAIC C AB FISH C NR CASTAIC CA,34.60637689,-118.6650888,N,37,17569701
T11108080,11108080,FISH C AB CASTAIC C NR CASTAIC CA,34.60248818,-118.6628665,N,27.2,17569729
T11108090,11108090,ELDERBERRY CYN C AB CASTAIC C NR CASTAIC CA,34.5722118,-118.6253655,Y,2.5,17569915
T11108095,11108095,NECKTIE CYN C AB CASTAIC C NR CASTAIC CA,34.56054568,-118.6150874,Y,2.12,17570001
T11108130,11108130,ELIZABETH LK CYN C AB CASTAIC LK NR CASTAIC CA,34.57610057,-118.5570301,N,43.7,17569955
T11108134,11108134,CASTAIC C BLW MWD DIV BLW CASTAIC LK NR CASTAIC,34.5194364,-118.6103652,N,138,17570321
T11108135,11108135,CASTAIC LAGOON PARSHALL FL NR CASTAIC CA,34.51027017,-118.6086985,NA,138,17570449
T11108145,11108145,CASTAIC C NR SAUGUS CA,34.42832922,-118.6286993,N,184,17574587
T11108500,11108500,SANTA CLARA RIVER AT L.A.-VENTURA CO. LINE CA,34.39971939,-118.7048127,N,625,17574705
T11109000,11109000,SANTA CLARA R NR PIRU CA,34.40360813,-118.739258,N,645,17575785
T11109100,11109100,PIRU C BL THORN MEADOWS NR STAUFFER CA,34.63915266,-119.0962168,N,22.5,17567453
T11109200,11109200,MF LOCKWOOD C NR STAUFFER CA,34.76553609,-119.12094,N,5.5,17568541
T11109250,11109250,LOCKWOOD C A GORGE NR STAUFFER CA,34.73248227,-119.0381586,N,58.7,17567207
T11109375,11109375,PIRU C BL BUCK C NR PYRAMID LK CA,34.66609632,-118.8242608,N,198,17569367
T11109395,11109395,CANADA DE LOS ALAMOS AB PYRAMID LK CA,34.69192849,-118.7912038,N,61.8,17572225
T11109396,11109396,CA AQUEDUCT A N PORTAL TEHACHAPI TNL NR GORMAN CA,34.9294166,-118.8056509,NA,NA,14950768
T11109398,11109398,WB CA AQUEDUCT A WILLIAM WARNE PP NR GORMAN CA,34.6852621,-118.7887037,NA,NA,17572357
T11109525,11109525,PIRU C BL PYRAMID LK NR GORMAN CA,34.64165299,-118.7645362,N,295,24858039
T11109600,11109600,PIRU CREEK ABOVE LAKE PIRU CA,34.52304728,-118.7570362,N,372,17572335
T11109800,11109800,PIRU CREEK BELOW SANTA FELICIA DAM CA,34.46027231,-118.7520361,N,425,17575859
T11110000,11110000,PIRU C NR PIRU CA,34.42499608,-118.7620366,N,437,17574539
T11110500,11110500,HOPPER CREEK NEAR PIRU CA,34.40083045,-118.8264837,Y,23.6,17574757
T11111500,11111500,SESPE CREEK NEAR WHEELER SPRINGS CA,34.5777657,-119.2578902,Y,49.5,17567911
T11112500,11112500,FILLMORE IRR CO CN NR FILLMORE CA,34.45416125,-118.9253767,NA,NA,17574265
T11113000,11113000,SESPE C NR FILLMORE,34.4416618,-118.9273212,Y,252,17574345
T11113001,11113001,SESPE C + FILLMORE IRR CO CN NR FILLMORE CA,34.45082807,-118.9259322,NA,251,17574345
T11113500,11113500,SANTA PAULA CREEK NEAR SANTA PAULA,34.4133295,-119.0823272,N,38.4,17573647
T11113900,11113900,SATICOY DIV NR SATICOY,34.29277989,-119.1173279,NA,NA,17573053
T11114000,11114000,SANTA CLARA RIVER AT MONTALVO CA,34.24222654,-119.1898302,N,1594,17573713
T11114495,11114495,MATILIJA C NR RES NR MATILIJA HOT SPRINGS CA,34.5027693,-119.3573393,Y,47.8,17585808
T11114500,11114500,MATILIJA C AB RES NR MATILIJA HOT SPRINGS CA,34.49471397,-119.3309491,N,50.7,17587578
T11115500,11115500,MATILIJA C A MATILIJA HOT SPRINGS,34.48276995,-119.3017809,Y,54.6,17586470
T11116000,11116000,NF MATILIJA C A MATILIJA HOT SPRINGS CA,34.49249174,-119.3065034,Y,15.6,17586460
T11116550,11116550,VENTURA R NR MEINERS OAKS CA,34.46499299,-119.2898357,N,76.4,17586538
T11117000,11117000,SAN ANTONIO C NR OJAI CA,34.59359842,-119.2584459,N,33.7,17586648
T11117500,11117500,SAN ANTONIO C A CASITAS SPRINGS,34.38027469,-119.3045578,N,51.2,17586842
T11117600,11117600,COYOTE CREEK NEAR OAK VIEW CA,34.41666158,-119.3706722,Y,13.2,17586774
T11117800,11117800,SANTA ANA C NR OAK VIEW,34.42360587,-119.3412265,Y,9.11,17586728
T11118000,11118000,COYOTE C NR VENTURA CA,34.35722009,-119.3137247,N,41.2,17587614
T11118400,11118400,VENTURA R DIV NR VENTURA CA,34.35833118,-119.310669,NA,NA,17587720
T11118500,11118500,VENTURA R NR VENTURA,34.35222038,-119.3084466,N,188,948070372
T11118501,11118501,VENTURA R NR VENTURA+ DIV. CA,34.35222038,-119.3084466,NA,188,948070372
T11119500,11119500,CARPINTERIA C NR CARPINTERIA CA,34.4013836,-119.4865103,N,13.1,17596159
T11119530,11119530,FRANKLIN C A CARPINTERIA CA,34.40416149,-119.519012,N,3.56,17595477
T11119745,11119745,MISSION C A ROCKY NOOK PARK A SANTA BARBARA CA,34.44055266,-119.7118027,N,6.6,17595453
T11119750,11119750,MISSION C NR MISSION ST NR SANTA BARBARA CA,34.42638889,-119.7222222,N,8.38,17595453
T11119780,11119780,ARROYO BURRO A SANTA BARBARA CA,34.43694215,-119.7465269,N,6.65,17596153
T11119940,11119940,MARIA YGNACIO C A UNIVERSITY DRIVE NR GOLETA CA,34.4449965,-119.80375,N,6.4,17596111
T11120000,11120000,ATASCADERO C NR GOLETA CA,34.4247189,-119.8118051,N,18.9,17595429
T11120500,11120500,SAN JOSE C NR GOLETA CA,34.45916286,-119.8090283,Y,5.51,17596109
T11120510,11120510,SAN JOSE C A GOLETA CA,34.43027415,-119.822083,Y,9.42,17595405
T11120520,11120520,SAN PEDRO C A GOLETA CA,34.4397181,-119.8365279,Y,3.1,17596097
T11120530,11120530,TECOLOTITO C NR GOLETA CA,34.43471754,-119.8687502,Y,4.42,17595369
T11120550,11120550,GAVIOTA C NR GAVIOTA CA,34.48776644,-120.2270947,Y,18.8,17594763
T11120600,11120600,JALAMA C NR LOMPOC CA,34.51387401,-120.4848861,N,20.5,17593507
T11121000,11121000,SANTA YNEZ R A JAMESON LK NR MONTECITO CA,34.4922149,-119.507902,N,13.9,17612503
T11121010,11121010,JAMESON LK RELEASE WEIR A JAMESON LAKE CA,34.4922149,-119.507902,NA,13.9,17612503
T11121900,11121900,GIBRALTAR DAM DIV WEIR A GIBRALTAR DAM CA,34.52416133,-119.6870801,NA,NA,17611471
T11122010,11122010,GIBRALTAR DAM REL WR A GIBRALTAR DAM CA,34.52416133,-119.6873579,NA,NA,17610919
T11123000,11123000,SANTA YNEZ R BL GIBRALTAR DAM NR SNTA BRB C CA,34.5244391,-119.6873579,N,216,17610919
T11123500,11123500,SANTA YNEZ R BL LOS LAURLS CYN NR SNTA YNEZ CA,34.54360358,-119.8648627,N,277,17611449
T11124500,11124500,SANTA CRUZ C NR SANTA YNEZ CA,34.59665633,-119.9087519,Y,74,17611425
T11125000,11125000,CACHUMA C NR SANTA YNEZ CA,34.60832217,-119.935419,N,23.8,17611423
T11125600,11125600,HILTON CYN C NR SANTA YNEZ CA,34.58221109,-119.9826419,N,2.42,17610419
T11126000,11126000,SANTA YNEZ R NR SANTA YNEZ CA,34.58915523,-119.9887532,N,422,17611429
T11126500,11126500,SANTA AGUEDA C NR SANTA YNEZ CA,34.59498792,-120.0295879,N,55.8,17608997
T11127500,11127500,ZANJA DE COTA C NR SANTA YNEZ CA,34.58609862,-120.0959795,N,13.8,17609007
T11128000,11128000,SANTA YNEZ R A GRAND AVE NR SANTA YNEZ CA,34.58498749,-120.1009797,N,513,17609011
T11128250,11128250,ALAMO PINTADO C NR SOLVANG CA,34.61831975,-120.120703,N,29.4,17607945
T11128400,11128400,ALISAL C NR SOLVANG CA,34.57637614,-120.1484816,Y,11.6,17608281
T11128500,11128500,SANTA YNEZ R A SOLVANG CA,34.58498706,-120.1445926,N,579,17609015
T11129500,11129500,SANTA YNEZ R A BUELLTON CA,34.60693043,-120.1968173,N,611,17608993
T11129800,11129800,ZACA C NR BUELLTON CA,34.64859614,-120.1843172,N,32.8,17607773
T11130000,11130000,ZACA C A BUELLTON CA,34.61387474,-120.1926505,N,39.4,17608985
T11130500,11130500,SANTA YNEZ R NR BUELLTON CA,34.61054095,-120.2490417,N,668,948060199
T11131000,11131000,SANTA YNEZ R AT SANTA ROSA DAMSITE NR BUELLTON CA,34.60970721,-120.3065445,N,700,17608987
T11131500,11131500,SANTA YNEZ R A COOPERS REEF NR LOMPOC CA,34.61331786,-120.3573804,N,708,17607901
T11132000,11132000,SANTA YNEZ R BL SANTA RITA C NR LOMPOC CA,34.63331722,-120.39266,N,733,17609043
T11132500,11132500,SALSIPUEDES C NR LOMPOC CA,34.5885957,-120.4084938,Y,47.1,17609017
T11133000,11133000,SANTA YNEZ R A NARROWS NR LOMPOC CA,34.63609474,-120.424606,N,NA,948060325
T11133500,11133500,SANTA YNEZ R NR LOMPOC CA,34.64415012,-120.4309953,N,790,948060325
T11133700,11133700,PURISIMA C NR LOMPOC CA,34.69276037,-120.431829,N,4.75,17607645
T11134000,11134000,SANTA YNEZ R A H ST NR LOMPOC CA,34.66831622,-120.4579412,N,815,17608959
T11134500,11134500,SANTA YNEZ R A V STREET NR LOMPOC CA,34.66831613,-120.4757198,N,820,17608959
T11134800,11134800,MIGUELITO C A LOMPOC CA,34.6316501,-120.4648857,Y,11.6,17607917
T11135000,11135000,SANTA YNEZ R A PINE CYN NR LOMPOC CA,34.67220488,-120.492665,N,844,948060201
T11135500,11135500,SANTA YNEZ R A BARRIER NR SURF CA,34.68887119,-120.5857244,N,895,163864377
T11135800,11135800,SAN ANTONIO C A LOS ALAMOS CA,34.74331534,-120.2709888,N,34.9,17620166
T11136000,11136000,SAN ANTONIO C A HARRIS CA,34.76248138,-120.4246069,N,93.7,17620130
T11136100,11136100,SAN ANTONIO C NR CASMALIA CA,34.78220307,-120.5307227,N,135,17620568
T11136150,11136150,SAN ANTONIO C TRIB NR CASMALIA CA,34.81248035,-120.5257226,N,0.28,17619992
T11136400,11136400,WAGON RD C NR STAUFFER CA,34.70887158,-119.2078883,N,17.9,17637252
T11136480,11136480,REYES C NR VENTUCOPA CA,34.69415014,-119.3181711,N,4.62,17637988
T11136500,11136500,CUYAMA R NR VENTUCOPA CA,34.68887277,-119.3578952,N,89.9,17637968
T11136650,11136650,ALISO CYN C NR NEW CUYAMA CA,34.98331022,-119.7759677,N,16.1,17635794
T11136800,11136800,CUYAMA R BL BUCKHORN CYN NR SANTA MARIA CA,35.0219213,-120.2284868,N,886,17633130
T11137000,11137000,CUYAMA R NR SANTA MARIA CA,35.01164373,-120.2796007,N,904,17633138
T11137400,11137400,ALAMO C NR NIPOMO CA,35.04858759,-120.3023792,N,83.3,17633108
T11137500,11137500,ALAMO C NR SANTA MARIA CA,35.02219913,-120.3037684,N,86.6,17632516
T11137900,11137900,HUASNA R NR ARROYO GRANDE CA,35.07775398,-120.3718267,N,103,17632398
T11138000,11138000,HUASNA R NR SANTA MARIA CA,35.02108805,-120.3226582,N,117,17632504
T11138100,11138100,CUYAMA R BL TWITCHELL DAM CA,34.94442272,-120.2926569,N,1132,17634976
T11138500,11138500,SISQUOC R NR SISQUOC CA,34.83970289,-120.1682063,Y,281,17625379
T11139000,11139000,LA BREA C NR SISQUOC CA,34.85275802,-120.1995967,N,93.6,17624669
T11139350,11139350,FOXEN C NR SISQUOC CA,34.81609192,-120.2248757,N,16.8,17624899
T11139500,11139500,TEPUSQUET C NR SISQUOC CA,34.87247964,-120.2445989,N,28.7,17625369
T11140000,11140000,SISQUOC R NR GAREY,34.89386807,-120.3065463,N,471,17625349
T11140585,11140585,SANTA MARIA R A SUEY CROSSING NR SANTA MARIA CA,34.96831117,-120.404051,N,1636,17625465
T11140600,11140600,BRADLEY DITCH NR DONOVAN RD A SANTA MARIA CA,34.96664454,-120.4176628,NA,NA,17623977
T11141000,11141000,SANTA MARIA R A GUADALUPE,34.97636613,-120.5718364,N,1741,17625463
T11141050,11141050,ORCUTT C NR ORCUTT CA,34.88359037,-120.4948883,N,18.5,17624441
T11141150,11141150,ARROYO GRANDE AB PHOENIX C NR ARROYO GRANDE CA,35.18858618,-120.4351621,Y,13.5,8192881
T11141160,11141160,WITTENBERG C NR ARROYO GRANDE CA,35.2171971,-120.4557184,N,3.11,8193805
T11141280,11141280,LOPEZ C NR ARROYO GRANDE CA,35.23553035,-120.4723857,Y,20.9,8193647
T11141300,11141300,ARROYO GRANDE NR ARROYO GRANDE CA,35.18608661,-120.4996096,N,68.3,8193667
T11141400,11141400,TAR SPRING C NR ARROYO GRANDE CA,35.13219812,-120.5426675,N,18.2,8192995
T11141500,11141500,ARROYO GRANDE AT ARROYO GRANDE CA,35.12442032,-120.5690576,N,102,8193677
T11141600,11141600,LOS BERROS C NR NIPOMO CA,35.08803198,-120.5098887,N,15,8193685
T11142080,11142080,MORRO C A MORRO BAY CA,35.37830739,-120.8543459,N,24,8192559
T11142100,11142100,TORO C NR MORRO BAY CA,35.42525134,-120.8601794,N,14,8192531
T11142200,11142200,SANTA ROSA C NR CAMBRIA CA,35.5763603,-120.9982426,N,12.5,8191593
T11142500,11142500,ARROYO DE LA CRUZ NR SAN SIMEON CA,35.71719032,-121.2849258,N,41.2,8190393
T11143000,11143000,BIG SUR R NR BIG SUR CA,36.24579648,-121.7732872,Y,46.5,8189809
T11143200,11143200,CARMEL R A ROBLES DEL RIO CA,36.47440615,-121.7288364,N,193,17600477
T11143250,11143250,CARMEL R NR CARMEL CA,36.53912781,-121.8805085,N,247,17599295
T11143300,11143300,ARROYO DEL REY A DEL REY OAKS CA,36.59384897,-121.8377294,N,13.8,17599225
T11143500,11143500,SALINAS R NR POZO CA,35.29858465,-120.4037709,Y,70.3,8213735
T11144000,11144000,TORO C NR POZO CA,35.32386227,-120.4212715,N,9.56,8214349
T11144200,11144200,SALSIPUEDES C NR POZO CA,35.29275175,-120.4529399,N,5.91,8213747
T11144600,11144600,SALINAS R BL SALINAS DAM NR POZO CA,35.33525155,-120.5037751,N,112,8214345
T11145000,11145000,SALINAS R AB PILITAS C NR SANTA MARGARITA CA,35.34886251,-120.5126643,N,114,8214345
T11145500,11145500,SALINAS R NR SANTA MARGARITA CA,35.40552867,-120.5857225,N,149,8213521
T11147000,11147000,JACK C NR TEMPLETON CA,35.56663815,-120.8037877,N,25.3,8212065
T11147040,11147040,SANTA RITA C TRIB NR TEMPLETON CA,35.53413878,-120.847401,N,2.95,8212111
T11147070,11147070,SANTA RITA C NR TEMPLETON CA,35.52386122,-120.7660077,N,18.2,8212151
T11147500,11147500,SALINAS R A PASO ROBLES CA,35.6285813,-120.6843373,N,390,8212843
T11147600,11147600,HUERHUERO C NR CRESTON CA,35.58413745,-120.5548865,N,101,8211959
T11147700,11147700,CHOLAME C TRIB NR CHOLAME CA,35.7527434,-120.2648693,N,9.26,17649041
T11147800,11147800,CHOLAME C NR SHANDON CA,35.68885664,-120.3351522,N,227,17648071
T11148500,11148500,ESTRELLA R NR ESTRELLA CA,35.71719096,-120.6401683,N,922,17647991
T11148800,11148800,NACIMIENTO R NR BRYSON CA,35.80163462,-121.1149171,N,147,8209915
T11148900,11148900,NACIMIENTO R BL SAPAQUE C NR BRYSON CA,35.78857918,-121.0938048,Y,162,8209965
T11149400,11149400,NACIMIENTO R BL NACIMIENTO DAM NR BRADLEY CA,35.76135678,-120.855458,N,329,8212787
T11149500,11149500,NACIMIENTO R NR SAN MIGUEL CA,35.7833006,-120.7910099,N,349,8211705
T11149700,11149700,SAN ANTONIO R A SAM JNS BR NR LOCKWOOD CA,35.91246731,-121.131585,N,204,8209653
T11149900,11149900,SAN ANTONIO R NR LOCKWOOD CA,35.89663404,-121.0882491,N,217,8210533
T11150000,11150000,SAN ANTONIO R A PLEYTO CA,35.86524529,-120.992688,N,277,8212895
T11150500,11150500,SALINAS R NR BRADLEY CA,35.9302434,-120.8687915,N,2535,8211251
T11151300,11151300,SAN LORENZO C BL BITTERWATER C NR KING CITY CA,36.26802087,-121.066303,Y,233,8205487
T11151700,11151700,SALINAS R A SOLEDAD CA,36.41107602,-121.3193738,N,3563,948060170
T11151870,11151870,ARROYO SECO NR GREENFIELD CA,36.23746164,-121.4816027,Y,113,8203373
T11152000,11152000,ARROYO SECO NR SOLEDAD CA,36.28052076,-121.3227063,N,244,8205291
T11152050,11152050,ARROYO SECO BL RELIZ C NR SOLEDAD CA,36.39968708,-121.3240962,N,304,8205489
T11152300,11152300,SALINAS R NR CHUALAR CA,36.55357267,-121.5493856,N,4042,8200795
T11152500,11152500,SALINAS R NR SPRECKELS CA,36.631071,-121.672446,N,4156,8200533
T11152540,11152540,EL TORO C NR SPRECKELS CA,36.5832937,-121.7149471,N,31.9,8200677
T11152600,11152600,GABILAN C NR SALINAS CA,36.75579196,-121.6105005,N,36.7,17605309
T11152650,11152650,RECLAMATION DITCH NR SALINAS CA,36.70495861,-121.7049475,NA,53.2,17604479
T11152900,11152900,CEDAR C NR BELL STATION CA,37.04994511,-121.3274311,Y,12.8,17661409
T11153000,11153000,PACHECO C NR DUNNEVILLE CA,36.9799481,-121.3802108,N,146,17663037
T11153470,11153470,LLAGAS C AB CHESBRO RES NR MORGAN HILL CA,37.14827978,-121.7682836,Y,9.63,17662343
T11153500,11153500,LLAGAS C NR MORGAN HILL CA,37.11439105,-121.6905028,N,19.6,17661097
T11153650,11153650,LLAGAS C NR GILROY,36.98744858,-121.5271622,N,84.2,948060250
T11153700,11153700,PAJARO R NR GILROY CA,36.94828362,-121.5118842,N,399,17663049
T11153900,11153900,UVAS C AB UVAS RES NR MORGAN HILL CA,37.09272543,-121.7182818,Y,21,17661201
T11154000,11154000,UVAS C NR MORGAN HILL CA,37.06661475,-121.6927252,N,30.4,948060247
T11154100,11154100,BODFISH C NR GILROY CA,37.0041163,-121.6671686,Y,7.4,17661675
T11154200,11154200,UVAS C NR GILROY CA,36.99217114,-121.5735532,N,71.2,17663007
T11154700,11154700,CLEAR C NR IDRIA CA,36.36468256,-120.7562868,Y,14.5,17673639
T11156000,11156000,SAN BENITO R BL M C NR HERNANDEZ CA,36.38940632,-120.8960162,N,108,17671773
T11156450,11156450,WILLOW C TRIB NR SAN BENITO CA,36.59023988,-121.196868,N,1.24,17665659
T11156500,11156500,SAN BENITO R NR WILLOW CREEK SCHOOL CA,36.60940609,-121.2029797,Y,249,17665649
T11156700,11156700,PESCADERO C NR PAICINES CA,36.69440493,-121.3107646,N,38.3,17665619
T11157500,11157500,TRES PINOS C NR TRES PINOS CA,36.76579177,-121.2996532,N,208,17663805
T11158500,11158500,SAN BENITO R NR HOLLISTER CA,36.78801314,-121.3707678,N,586,17665543
T11158600,11158600,SAN BENITO R A HWY 156 NR HOLLISTER CA,36.85189909,-121.4299369,N,607,17663521
T11158900,11158900,PESCADERO C NR CHITTENDEN CA,36.90773034,-121.5854987,N,10.2,17663279
T11159000,11159000,PAJARO R A CHITTENDEN CA,36.9002307,-121.5977215,N,1186,17663281
T11159150,11159150,CORRALITOS C NR CORRALITOS CA,37.00550594,-121.8080085,N,10.6,17661713
T11159200,11159200,CORRALITOS C A FREEDOM CA,36.93939681,-121.7705065,N,27.8,17665491
T11159690,11159690,APTOS C NR APTOS CA,37.00161665,-121.9060688,Y,10.2,17683402
T11159700,11159700,APTOS C A APTOS CA,36.97633961,-121.9024573,N,12.3,17684374
T11159800,11159800,WB SOQUEL C NR SOQUEL CA,37.05133748,-121.9391252,N,12.2,17683342
T11160000,11160000,SOQUEL C A SOQUEL CA,36.9913389,-121.9557933,Y,40.2,17684378
T11160020,11160020,SAN LORENZO R NR BOULDER C CA,37.20661136,-122.1449644,Y,6.17,17682178
T11160060,11160060,BEAR C A BOULDER C CA,37.12772447,-122.1169089,N,16,17682316
T11160070,11160070,BOULDER C AT BOULDER CREEK CA,37.12661339,-122.1227425,Y,11.3,17682322
T11160300,11160300,ZAYANTE C A ZAYANTE CA,37.08605874,-122.0469069,Y,11.1,17682394
T11160430,11160430,BEAN C NR SCOTTS VALLEY CA,37.05522613,-122.0413516,N,8.81,17682446
T11160500,11160500,SAN LORENZO R A BIG TREES CA,37.04439313,-122.0724641,Y,106,17682474
T11161000,11161000,SAN LORENZO R A SANTA CRUZ CA,36.99078323,-122.0319076,N,115,17684066
T11161300,11161300,CARBONERA C A SCOTTS VALLEY CA,37.05050396,-122.0135729,Y,3.6,17682694
T11161500,11161500,BRANCIFORTE C A SANTA CRUZ CA,36.9860611,-122.0144069,N,17.3,17684084
T11161570,11161570,MAJORS C NR SANTA CRUZ CA,36.99856108,-122.1213554,N,3.77,17684082
T11161590,11161590,LAGUNA C NR DAVENPORT CA,37.02550486,-122.1310776,N,3.07,17682512
T11161800,11161800,SAN VICENTE C NR DAVENPORT CA,37.05522644,-122.18219,N,6.07,17682482
T11161900,11161900,SCOTT C AB LITTLE C NR DAVENPORT CA,37.06411519,-122.2294139,N,25.1,17682422
T11162500,11162500,PESCADERO C NR PESCADERO CA,37.26077707,-122.3288602,Y,45.9,17688105
T11162540,11162540,BUTANO C NR PESCADERO CA,37.23355579,-122.3666399,Y,18.3,17688327
T11162570,11162570,SAN GREGORIO C A SAN GREGORIO CA,37.3257762,-122.3866404,Y,50.9,17687965
T11162600,11162600,PURISIMA C NR HALF MOON BAY CA,37.43494048,-122.3741392,N,4.83,17687875
T11162620,11162620,PILARCITOS C BL STONE DAM NR HILLSBOROUGH CA,37.52466087,-122.3994177,N,6.54,17687547
T11162630,11162630,PILARCITOS C A HALF MOON BAY CA,37.46660747,-122.4341421,N,27.1,17688275
T11162720,11162720,COLMA C A SOUTH SAN FRANCISCO CA,37.65382296,-122.4263613,N,10.8,2804039
T11162800,11162800,REDWOOD C A REDWOOD CITY CA,37.44938279,-122.2335772,N,1.82,2809137
T11162940,11162940,SAN FRANCISQUITO C BL LADERA DAMSITE CA,37.40660625,-122.2041322,N,28.5,17692965
T11162950,11162950,SAN FRANCISQUITO C T NR STANFORD UNIV CA,37.4118839,-122.1988543,N,0.24,17692965
T11163000,11163000,LOS TRANCOS CN NR STANFORD UNIV CA,37.38882898,-122.1871873,NA,NA,17692975
T11163200,11163200,LOS TRANCOS C TRIB NR STANFORD UNIV CA,37.4049397,-122.1869095,NA,0.42,17692969
T11163500,11163500,LOS TRANCOS C A STANFORD UNIV CA,37.4121617,-122.1941319,N,7.46,17692959
T11164000,11164000,LAGUNITA CN A STANFORD U CA,37.4179949,-122.1885762,NA,NA,17693279
T11164500,11164500,SAN FRANCISQUITO C A STANFORD UNIVERSITY CA,37.42327257,-122.1894096,N,37.4,17693217
T11165500,11165500,SAN FRANCISQUITO C A PALO ALTO CA,37.45271657,-122.1399639,N,40.8,17693217
T11166000,11166000,MATADERO C A PALO ALTO CA,37.42160621,-122.1355193,N,7.26,17693219
T11166500,11166500,STEVENS C NR CUPERTINO CA,37.305498,-122.0746836,N,18.1,17693255
T11166900,11166900,ALAMITOS C NR NEW ALMADEN CA,37.22244434,-121.8510641,N,31.9,17694463
T11167000,11167000,ALAMITOS C NR EDENVALE CA,37.23549956,-121.8699535,N,34.6,17694425
T11167500,11167500,GUADALUPE C A GUADALUPE CA,37.21716673,-121.9107886,N,12.8,17694479
T11167660,11167660,ROSS C A SAN JOSE CA,37.2488326,-121.913566,N,5.7,17695689
T11168000,11168000,LOS GATOS C A LOS GATOS CA,37.21744453,-121.9874581,N,39.1,17695715
T11168500,11168500,LOS GATOS C BL LOS GATOS CA,37.23327749,-121.9741241,N,42.6,17694447
T11169000,11169000,GUADALUPE R A SAN JOSE CA,37.33438593,-121.8994,N,146,17694137
T11169025,11169025,GUADALUPE R ABV HWY 101 A SAN JOSE CA,37.3738296,-121.9330129,N,160,17694137
T11169500,11169500,SARATOGA C A SARATOGA CA,37.25438808,-122.0394041,N,9.22,17693069
T11169580,11169580,CALABAZAS C TRIB AT MT EDEN RD NR SARATOGA CA,37.26910995,-122.0610717,N,0.37,17693059
T11169600,11169600,PROSPECT C AT SARATOGA GOLF COURSE NR SARATOGA CA,37.28577626,-122.0549605,N,0.27,17693043
T11169616,11169616,CALABAZAS C A RAINBOW DR NR CUPERTINO CA,37.300776,-122.0266263,N,3.98,17693041
T11169800,11169800,COYOTE C NR GILROY CA,37.07772286,-121.4943832,Y,109,17694891
T11170000,11170000,COYOTE C NR MADRONE CA,37.1682777,-121.6496677,N,196,17694721
T11171500,11171500,COYOTE C NR EDENVALE CA,37.27077623,-121.797451,N,229,948050176
T11172100,11172100,UP PENITENCIA C A SAN JOSE CA,37.3952171,-121.8282872,Y,21.5,17694079
T11172175,11172175,COYOTE C AB HWY 237 A MILPITAS CA,37.4221617,-121.9274577,N,319,17695611
T11172945,11172945,ALAMEDA C AB DIV DAM NR SUNOL CA,37.4974356,-121.7735644,Y,33.3,2809681
T11173000,11173000,ALAMEDA C NR SUNOL CA,37.51382439,-121.8038433,N,37.5,2808615
T11173200,11173200,ARROYO HONDO NR SAN JOSE CA,37.46160337,-121.769397,Y,77.1,2809859
T11173500,11173500,CALAVERAS C NR SUNOL CA,37.49771396,-121.8177326,N,98.8,2809701
T11173510,11173510,ALAMEDA C BL CALAVERAS C NR SUNOL CA,37.5035472,-121.8246774,N,139,2806979
T11173575,11173575,ALAMEDA C BL WELCH C NR SUNOL CA,37.5404908,-121.856345,N,149,2806865
T11174000,11174000,SAN ANTONIO C NR SUNOL CA,37.577434,-121.857734,N,37,2806745
T11174500,11174500,ALAMO C A DUBLIN CA,37.7013188,-121.9191247,N,38.7,2806299
T11176000,11176000,ARROYO MOCHO NR LIVERMORE CA,37.62632039,-121.7046734,N,38.2,2806597
T11176145,11176145,ARROYO LAS POSITAS A LIVERMORE CA,37.69992957,-121.7738424,N,53.3,2806319
T11176150,11176150,ARROYO LAS POSITAS NR LIVERMORE CA,37.6977075,-121.8052322,N,64.6,2806323
T11176180,11176180,ARROYO LAS POSITAS A ELCH RD NR PLEASANTON CA,37.69687432,-121.8494003,N,75,2806337
T11176200,11176200,ARROYO MOCHO NR PLEASANTON CA,37.69048573,-121.8732899,N,142,2806357
T11176300,11176300,TASSAJARA C NR PLEASANTON CA,37.69909655,-121.8791234,N,26.8,2806359
T11176400,11176400,ARROYO VALLE BL LANG CN NR LIVERMORE CA,37.56132196,-121.6838389,Y,130,2806807
T11176500,11176500,ARROYO VALLE NR LIVERMORE CA,37.62326509,-121.7588418,N,147,2808553
T11176600,11176600,ARROYO VALLE A PLEASANTON CA,37.66715326,-121.8827347,N,171,2806459
T11176900,11176900,ARROYO DE LA LAGUNA A VERONA CA,37.62659915,-121.8830126,N,403,2806611
T11177000,11177000,ARROYO DE LA LAGUNA NR PLEASANTON CA,37.61521066,-121.8816236,N,405,2806611
T11179000,11179000,ALAMEDA C NR NILES CA,37.58715679,-121.960793,N,633,2806725
T11180500,11180500,DRY C A UNION CITY CA,37.6060452,-122.0238504,Y,9.39,2804369
T11180700,11180700,ALAMEDA C FLOOD CHANNEL A UNION CITY CA,37.58576818,-122.0482955,N,NA,2805109
T11180750,11180750,ALAMEDA C A UNION CITY CA,37.59604553,-122.0552401,N,NA,2804967
T11180810,11180810,PALOMARES C NR HAYWARD CA,37.69437491,-122.0249613,N,9.08,2803961
T11180825,11180825,SAN LORENZO C AB DON CASTRO RES NR CASTRO V CA,37.69520825,-122.044962,Y,18,2803945
T11180900,11180900,CROW C NR HAYWARD CA,37.70493008,-122.0438508,N,10.5,2803935
T11180960,11180960,CULL C AB CULL C RES NR CASTRO VALLEY CA,37.71770737,-122.0544067,Y,5.79,2804901
T11181000,11181000,SAN LORENZO C A HAYWARD CA,37.68548644,-122.064407,Y,37.5,2803983
T11181006,11181006,CASTRO VALLEY C A KNOX ST AT CASTRO VAL CA,37.68215326,-122.079963,N,2.2,2803979
T11181008,11181008,CASTRO VALLEY C A HAYWARD CA,37.67993113,-122.0805186,N,5.51,2803985
T11181040,11181040,SAN LORENZO C A SAN LORENZO CA,37.68409772,-122.1399649,N,44.6,2804929
T11181330,11181330,TEMESCAL C AB LK TEMESCAL A OAKLAND CA,37.8438154,-122.2274681,N,1.74,1671803
T11181390,11181390,WILDCAT C A VALE RD AT RICHMOND CA,37.9532571,-122.3383039,Y,7.79,1671771
T11181400,11181400,WILDCAT C A RICHMOND CA,37.96131246,-122.3602489,N,8.69,1671771
T11182100,11182100,PINOLE C A PINOLE CA,37.97242309,-122.2463573,Y,10,1671763
T11182400,11182400,ARROYO DEL HAMBRE A MARTINEZ CA,38.00325513,-122.1299651,N,15.1,948050078
T11182500,11182500,SAN RAMON C A SAN RAMON CA,37.772983,-121.9946825,Y,5.89,2790443
T11182800,11182800,SAN RAMON C NR WALNUT CREEK CA,37.8771471,-122.0488513,N,47.9,948050140
T11183000,11183000,SAN RAMON C AT WALNUT CREEK CA,37.88436913,-122.0510736,Y,50.8,2789355
T11183500,11183500,WALNUT C AT WALNUT CREEK CA,37.90575747,-122.057185,N,79.2,2789339
T11183600,11183600,WALNUT C A CONCORD CA,37.94520083,-122.0496848,N,85.2,2789571
T11183700,11183700,LITTLE PINE C NR ALAMO CA,37.88492448,-121.977738,Y,1.22,2790383
T11184500,11184500,PINE C A CONCORD CA,37.96936683,-122.046907,N,28.3,2789557
T11185000,11185000,GRAYSON C NR HOOKSTON CA,37.9513117,-122.0357956,N,1.96,2789281
T11185300,11185300,GOLDEN TROUT C NR CARTAGO CA,36.37188216,-118.2889759,N,23.6,14970387
T11185350,11185350,KERN R NR QUAKING ASPEN CAMP CA,36.13438837,-118.4311976,N,530,14970831
T11185400,11185400,LITTLE KERN R NR QUAKING ASPEN CAMP CA,36.13549952,-118.4367533,N,132,14970833
T11185500,11185500,KERN R NO 3 CN NR KERNVILLE CA,35.90550439,-118.467586,NA,NA,14972873
T11185600,11185600,PACKSADDLE CYN C NR FAIRVIEW CA,35.94383727,-118.4759195,N,4.05,14971731
T11186000,11186000,KERN R NR KERNVILLE(RIVER ONLY) CA,35.94522615,-118.4775862,N,846,14971709
T11186001,11186001,COMBINED FLOW OF KERN R AND KERN R NO 3 CA,35.94522615,-118.4775862,NA,846,14972873
T11187000,11187000,KERN R A KERNVILLE CA,35.75439543,-118.4234182,N,1009,14972877
T11187500,11187500,BOREL CN BL ISABELLA DAM CA,35.6421749,-118.4700856,NA,NA,14940680
T11188000,11188000,KERN R A ISABELLA CA,35.666619,-118.4592521,N,1068,14972935
T11188200,11188200,SF KERN R NR OLANCHA CA,36.18327382,-118.1289716,N,146,14959487
T11189500,11189500,SF KERN R NR ONYX CA,35.7374516,-118.173689,N,530,14961121
T11189700,11189700,KELSO C NR WELDON CA,35.7199522,-118.2523017,N,101,14962453
T11190000,11190000,SF KERN R A ISABELLA CA,35.65911911,-118.4609187,N,982,14972943
T11191000,11191000,KERN R BL ISABELLA DAM CA,35.63911932,-118.4848082,N,2074,14940676
T11192000,11192000,KERN R NO 1 CONDUIT NR DEMOCRAT SPRINGS CA,35.49717785,-118.6925891,NA,NA,14947214
T11192500,11192500,KERN R NR DEMOCRAT SPRINGS(RIVER ONLY) CA,35.52078857,-118.6770332,N,2258,14940950
T11192501,11192501,KERN R NR DEMOCRAT SPRINGS CA (TOTAL FLOW) CA,35.52078857,-118.6770332,NA,2258,14940950
T11192940,11192940,KERN CYN PH NR BAKERSFIELD CA,35.439957,-118.7959262,NA,NA,14946890
T11192950,11192950,KERN R BL KERN CYN PH DIV DAM NR BAKERSFIELD CA,35.46023439,-118.7795364,N,NA,14946890
T11193000,11193000,KERN R BL KERN CYN PH NR BAKERSFIELD CA,35.48606715,-118.8148148,N,2307,14946890
T11193010,11193010,RIO BRAVO PP NR BAKERSFIELD CA,35.43023502,-118.822594,NA,NA,17173722
T11193020,11193020,KERN R A RIO BRAVO PP DIV DAM NR BKRSFLD CA,35.43023502,-118.822594,N,NA,17173722
T11193030,11193030,KERN R FW RL A RIO BRAVO PP DIV DAM NR BAKRSFLD CA,35.43023502,-118.822594,NA,NA,17173722
T11193031,11193031,COMB FLOW OF 11193020 + 11193030 CA,35.430235,-118.822594,NA,NA,17173722
T11193032,11193032,KERN R A RIO BRAVO PP BYPASS FLOW IN DAM NR BKSFLD,35.43023502,-118.822594,NA,NA,17173722
T11194000,11194000,KERN R NR BAKERSFIELD CA,35.43162386,-118.9462092,N,2407,17173688
T11194200,11194200,WAGONWHEEL C NR REWARD CA,35.32329868,-119.7429065,N,1.38,17172622
T11195500,11195500,SAN EMIGDIO C A SAN EMIGDIO RANCHHOUSE CA,34.98163745,-119.1851097,Y,48.8,17175320
T11195600,11195600,PASTORIA C NR LEBEC CA,34.9091399,-118.8162066,N,27.5,14948842
T11196400,11196400,CALIENTE C AB TEHACHAPI C NR CALIENTE CA,35.31134824,-118.5703669,YY,165,14945000
T11196420,11196420,TEHACHAPI C NR TEHACHAPI CA,35.17385268,-118.4795308,N,53.2,14945628
T11197250,11197250,AVENAL C NR AVENAL CA,35.85412696,-120.1270849,Y,57.1,17160150
T11197800,11197800,POSO C NR OILDALE CA,35.51384437,-118.9056511,N,230,14937291
T11199500,11199500,WHITE R NR DUCOR CA,35.80995236,-118.9184294,Y,90.6,17166342
T11200000,11200000,DEER C NR CA HOT SPRINGS CA,35.8791171,-118.6792551,N,16.8,14934792
T11200800,11200800,DEER C NR FOUNTAIN SPRINGS CA,35.94161745,-118.8228702,N,83.3,14934716
T11201200,11201200,DEER C DIV NR TERRA BELLA CA,35.99078599,-118.9859332,NA,NA,17161264
T11201450,11201450,PGE TULE R CONDUIT BL TULE R DD NR SPRINGVILLE CA,36.19216797,-118.6575909,NA,NA,14930943
T11201456,11201456,NF OF MF TULE R BL DIV DAM NR SPRINGVILLE CA,36.19244575,-118.6578687,N,30.9,14930941
T11201500,11201500,PGE CONDUIT NR SPRINGVILLE CA,36.1863348,-118.6639799,NA,NA,14930943
T11201700,11201700,PGE TULE R PH NR SPRINGVILLE CA,36.16328019,-118.706758,NA,NA,14930951
T11202000,11202000,NF OF MF TULE R NR SPRINGVILLE(RIVER ONLY CA,36.17466878,-118.6956469,N,39.3,14930339
T11202001,11202001,NF OF MF TULE R NR SPRINGVILLE(TOTAL FLOW CA,36.17466878,-118.6956469,NA,39.3,14930339
T11202700,11202700,SCE TULE R CONDUIT NR SPRINGVILLE CA,36.16161358,-118.7092581,NA,NA,14930953
T11202710,11202710,MF TULE R BL INTAKE AB SPRINGVILLE CA,36.1613358,-118.7095358,N,85.3,14930363
T11202711,11202711,MF TULE R BL IT AB SV+SCE CO TULE R CD COMB CA,36.16105801,-118.7078692,NA,85.3,14930363
T11202838,11202838,SCE TULE R CONDUIT A PP NR SPRINGVILLE CA,36.13527778,-118.788611,NA,NA,14930957
T11203000,11203000,BEAR C NR SPRINGVILLE CA,36.2024472,-118.7612043,N,13.5,14930261
T11203100,11203100,NF TULE R A SPRINGVILLE CA,36.13939291,-118.8050937,N,97.6,14930395
T11203190,11203190,TULE R DIV NR SPRINGVILLE CA,36.09939427,-118.8703734,NA,NA,14930549
T11203200,11203200,TULE R NR SPRINGVILLE CA,36.09467162,-118.836761,N,247,14930571
T11203220,11203220,TULE R A HWY 190 NR SPRINGVILLE CA,36.10050536,-118.8695401,N,NA,14930547
T11203221,11203221,TULE R A HWY 190 + DIV NR SPRINGVILLE CA,36.10050536,-118.8695401,NA,NA,14930547
T11203500,11203500,TULE R NR PORTERVILLE CA,36.07995061,-118.9092637,N,253,14931005
T11203580,11203580,SF TULE R NR CHOLOLLO CAMPGROUND NR PORTERVILLE CA,36.04828125,-118.6542556,Y,20.1,14930711
T11204000,11204000,SF TULE R NR PORTERVILLE CA,36.03050484,-118.7825912,N,80.3,14930729
T11204100,11204100,SF TULE R NR RESERVATION BNDRY NR PORTERVILLE CA,36.02411648,-118.8134258,YY,95.8,14930789
T11204500,11204500,SF TULE R NR SUCCESS CA,36.04245027,-118.8575946,N,109,14930723
T11204680,11204680,PIONEER DITCH BL SUCCESS DAM. CA,36.0593955,-118.9237086,NA,NA,17159708
T11204900,11204900,TULE R BL SUCCESS DAM CA,36.05633997,-118.9237086,N,393,17159708
T11205000,11205000,TULE R A WORTH BR NR PORTERVILLE CA,36.03995149,-118.9381535,N,395,17159722
T11206000,11206000,MF KAWEAH R NO 3 CONDUIT NR POTWISHA CAMP CA,36.51133438,-118.7975983,NA,NA,948030127
T11206500,11206500,MF KAWEAH R NR POTWISHA CAMP(RIVER ONLY) CA,36.51300095,-118.7917648,N,102,948030127
T11206501,11206501,MF KAWEAH R NR POTWISHA CAMP(TOTAL FLOW) CA,36.51327873,-118.7917649,NA,102,948030127
T11207500,11207500,MARBLE F KAWEAH R NO 3 CONDUIT A POTWISHA CA,36.51938994,-118.8009319,NA,NA,14918011
T11208000,11208000,MARBLE F KAWEAH R (R ONLY) A POTWISHA CAMP CA,36.5218899,-118.7992652,Y,51.4,14918005
T11208001,11208001,MARBLE F KAWEAH R (TOTAL FLOW) A POTWISHA CAMP CA,36.5188344,-118.8017652,NA,51.4,14918011
T11208500,11208500,MF KAWEAH TRIB NR HAMMOND CA,36.49300156,-118.825932,Y,1.9,14922121
T11208565,11208565,MF KAWEAH R CONDUIT NO 3 A PP NR HAMMOND CA,36.4861111,-118.8355556,NA,NA,14922143
T11208570,11208570,KAWEAH R CONDUIT NO. 2 NR HAMMOND CA,36.48605732,-118.8367656,NA,342,14922147
T11208600,11208600,KAWEAH R BL CONDUIT NO. 2 NR HAMMOND CA,36.48439065,-118.8359322,N,165,14922147
T11208601,11208601,COMBINED FLOW OF 11208570 + 11208600 CA,36.48605732,-118.8367656,NA,342,14922147
T11208610,11208610,MONARCH C NR HAMMOND CA,36.45244139,-118.5945377,N,1.89,14922281
T11208620,11208620,EF KAWEAH R BL MOSQUITO C NR HAMMOND CA,36.45133088,-118.6187048,N,16,14922287
T11208720,11208720,EF KAWEAH R CONDUIT 1 NR THREE RIVERS CA,36.45133464,-118.7895417,NA,85.8,14922311
T11208730,11208730,EF KAWEAH R NR THREE RIVERS CA,36.4516124,-118.789264,N,85.8,14922311
T11208731,11208731,COMBINED FLOW EF KAWEAH R NR THREE RIVERS CA,36.45161241,-118.789264,NA,85.8,14922311
T11208800,11208800,EF KAWEAH R CONDUIT 1 A PP NR HAMMOND CA,36.46527778,-118.8619444,NA,NA,14924431
T11208818,11208818,KAWEAH R CONDUIT NO 2 A PP NR HAMMOND CA,36.46166667,-118.8794444,NA,NA,14922205
T11209500,11209500,NF KAWEAH R A KAWEAH CA,36.49022518,-118.9209344,N,129,14922171
T11209900,11209900,KAWEAH R A THREE RIVERS CA,36.44383632,-118.9034335,Y,418,14922321
T11210000,11210000,SF KAWEAH R NR THREE RIVERS CA,36.37494719,-118.856487,N,66.5,14922513
T11210100,11210100,SF KAWEAH R A THREE RIVERS CA,36.41661442,-118.9142668,N,86.7,14922415
T11210500,11210500,KAWEAH R NR THREE RIVERS CA,36.40661504,-118.9542677,N,519,14922805
T11210850,11210850,LEMONCOVE DITCH BL TERMINUS DAM CA,36.4152268,-119.007047,NA,NA,17192788
T11210930,11210930,FOOTHILL DITCH BL TERMINUS DAM CA,36.4132824,-119.0139918,NA,NA,17153620
T11210950,11210950,KAWEAH R BL TERMINUS DAM CA,36.41411572,-119.0126029,N,561,17192788
T11211300,11211300,DRY C NR LEMONCOVE CA,36.44744896,-119.0281594,N,75.6,17152974
T11211785,11211785,COTTONWOOD C AB COLLIER C NR ELDERWOOD CA,36.54244892,-119.1120531,N,52.3,17142690
T11211790,11211790,COTTONWOOD C NR ELDERWOOD CA,36.52967132,-119.1267757,N,60.4,17142742
T11212000,11212000,SAND C NR ORANGE COVE CA,36.62661582,-119.2476159,N,31.6,17142458
T11212500,11212500,SF KINGS R NR CEDAR GROVE CA,36.80688729,-118.749546,N,408,22059573
T11213000,11213000,KINGS R NR HUME CA,36.84716695,-118.8981626,N,835,22058549
T11213500,11213500,KINGS R AB NF NR TRIMMER CA,36.8632806,-119.124282,Y,952,22050535
T11214000,11214000,NF KINGS R BL MEADOWBROOK CA,37.08133045,-118.862888,Y,37.7,22048943
T11214200,11214200,FLEMING C NR BLACKCAP MOUNTAIN CA,37.09855245,-118.8620551,N,15,22048921
T11214400,11214400,POST CORRAL C NR BLACKCAP MTN CA,37.10688665,-118.8967782,N,27.9,22048927
T11214500,11214500,HELMS C AT SAND MEADOWS CA,37.09716659,-118.9731683,N,34.7,22049573
T11214540,11214540,HELMS PP NR WISHON RE CA,37.03938878,-118.9553892,NA,NA,22049617
T11214600,11214600,HELMS C BL COURTRIGHT DAM CA,37.07633329,-118.9687234,N,39.7,22048993
T11214900,11214900,NF KINGS R BL WISHON RES CA,37.00133394,-118.9731668,N,178,22049247
T11215000,11215000,NF KINGS R NR CLIFF CAMP CA,36.99383417,-118.9812225,N,181,22057895
T11215500,11215500,RANCHERIA C NR SMITH MDW CA,36.95133422,-118.9717773,N,21.3,22058083
T11215800,11215800,TEAKETTLE C A S3 NR PAT MTN CA,36.96105724,-119.0273349,N,0.86,22050323
T11215820,11215820,TEAKETTLE C TRIB NO2 NR PAT MTN CA,36.9596684,-119.0342796,N,0.85,22050327
T11215830,11215830,TEAKETTLE C TRIB N2A NR PAT MTN CA,36.9568906,-119.0315017,N,0.27,22050327
T11216000,11216000,NF KINGS R BL RANCHERIA C CA,36.92772391,-119.0092783,N,229,22050435
T11216200,11216200,NF KINGS R BL BALCH DIV DAM CA,36.90272435,-119.0509463,N,238,22050473
T11216300,11216300,BALCH PH NR FRESNO (NO1 & NO2 COMB) CA,36.90994684,-119.0876145,NA,NA,22057157
T11216400,11216400,DINKEY C SIPHON FISH RELEASE A BALCH CAMP CA,36.9080027,-119.1251159,N,NA,22050467
T11216500,11216500,NF KINGS R AB DINKEY C A BALCH CAMP CA,36.90328046,-119.1215046,N,250,22050465
T11216800,11216800,ROCK C A DINKEY C CA,37.0899463,-119.1617858,N,7.6,22047771
T11217000,11217000,DINKEY C A DINKEY MDW NR SHAVER LK CA,37.04716886,-119.1487295,N,50.7,22048113
T11217500,11217500,DEER C BL EF NR SHAVER LK CA,37.00272406,-119.0648369,N,19,22047939
T11218000,11218000,DINKEY C A MOUTH CA,36.91661386,-119.1342831,N,132,22050467
T11218400,11218400,NF KINGS R BL DINKEY C NR BALCH CAMP CA,36.87966948,-119.1287268,N,387,22057161
T11218500,11218500,KINGS R BL NF NR TRIMMER CA,36.87466959,-119.1417829,Y,1342,22050527
T11218501,11218501,COMBINED FLOW KINGS R BL N F & KINGS R PP CA,36.87466959,-119.1417828,NA,NA,22050527
T11218700,11218700,KINGS R PH NR BALCH CAMP CA,36.88828079,-119.1584503,NA,NA,22057161
T11220000,11220000,BIG C AB PINE FLAT RES NR TRIMMER CA,36.91633697,-119.2445652,Y,70,22050457
T11220500,11220500,SYCAMORE C AB PINE FLAT RES NR TRIMMER CA,36.92022642,-119.3098459,Y,56.1,22057147
T11221500,11221500,KINGS R BL PINE FLAT DAM CA,36.83050452,-119.3362347,N,1545,17149772
T11221700,11221700,MILL C NR PIEDRA CA,36.81856014,-119.3417904,N,127,14907219
T11222000,11222000,KINGS R A PIEDRA CA,36.81661564,-119.3359567,N,1693,14900473
T11224500,11224500,LOS GATOS C AB NUNEZ CYN NR COALINGA CA,36.21467719,-120.4707116,Y,95.8,14883269
T11225000,11225000,LOS GATOS C NR COALINGA CA,36.21662139,-120.4509884,N,105,14883275
T11226000,11226000,NF SAN JOAQUIN R BL IRON C CA,37.61382594,-119.2343013,N,35.5,17112827
T11226500,11226500,SAN JOAQUIN R A MILLER CROSSING CA,37.51049707,-119.1973476,Y,249,17113015
T11228500,11228500,GRANITE C NR CATTLE MOUNTAIN CA,37.52660774,-119.2587389,N,47.8,17112989
T11229500,11229500,WARD TUNNEL A INTAKE A FLORENCE LAKE CA,37.2721651,-118.9723379,NA,NA,17119557
T11230000,11230000,SF SAN JOAQUIN R NR FLORENCE LK CA,37.27327601,-118.9659491,N,171,948040332
T11230200,11230200,HOOPER C BL DIV DAM NR FLORENCE LAKE CA,37.305775,-118.9506724,N,7.22,17119111
T11230215,11230215,SF SAN JOAQUIN R BL HOOPER C NR FLORENCE LAKE CA,37.3096642,-118.9620614,N,184,948040328
T11230500,11230500,BEAR C NR LAKE THOMAS A EDISON CA,37.3393863,-118.9734513,Y,52.5,17118323
T11230520,11230520,BEAR C CONDUIT NR LAKE THOMAS A EDISON CA,37.3360531,-118.9753956,NA,NA,17118327
T11230530,11230530,BEAR C BELOW DIV DAM NR LAKE THOMAS A EDISON CA,37.33549758,-118.9756734,N,52.8,17118355
T11231500,11231500,MONO C BL LK THOMAS A EDISON CA,37.361331,-118.992063,N,92.5,17119099
T11231550,11231550,MONO C CONDUIT NR MONO HOT SPRINGS CA,37.35994237,-118.9984518,NA,NA,17118303
T11231600,11231600,MONO C BL DIV DAM NR MONO HOT SPRINGS CA,37.35994237,-118.9984518,N,92.8,17119099
T11232000,11232000,SF SAN JOAQUIN R NR HOFFMAN MDW CA,37.41660924,-119.1454004,N,424,17114913
T11232500,11232500,JACKASS C NR BASS LAKE CA,37.48883067,-119.3037399,N,12.1,17114849
T11234500,11234500,CHIQUITO C NR BASS LAKE CA,37.41299788,-119.3820775,N,60.1,17114909
T11234750,11234750,MAMMOTH POOL FISHWATER TURBINE NR BIG CREEK CA,37.32216656,-119.3248501,NA,995,17115185
T11234760,11234760,SAN JOAQUIN R AB SHAKEFLAT C NR BIG CREEK CA,37.3166111,-119.3295725,N,1003,17115185
T11235000,11235000,SAN JOAQUIN R AB BIG CREEK CA,37.23744579,-119.331516,N,1050,17115421
T11235100,11235100,MAMMOTH POOL PP NR BIG CREEK CA,37.22494599,-119.3379052,NA,NA,17115423
T11235500,11235500,PORTAL POWERPLANT AT HUNTINGTON LAKE CA,37.25688909,-119.1592869,NA,NA,17116169
T11236080,11236080,HUNTINGTON-SHAVER COND IT A HUNTINGTON LK CA,37.2193897,-119.2203998,NA,NA,17116235
T11237000,11237000,BIG C BL HUNTINGTON LK CA,37.2213341,-119.2126217,N,81.1,948040323
T11237500,11237500,PITMAN C BL TAMARACK C CA,37.19855659,-119.2137328,Y,22.9,17116209
T11237600,11237600,PITMAN C SHAFT BL TAMARACK C NR BIG CREEK CA,37.1982788,-119.2142883,NA,NA,17116209
T11237700,11237700,PITMAN C NR TAMARACK MOUNTAIN CA,37.19911215,-119.2151217,N,23,17116209
T11238000,11238000,PITMAN C AT BIG CREEK CA,37.20272331,-119.234289,N,23.7,17116209
T11238100,11238100,BIG C PH NO 1 AT BIG CREEK CA,37.2041122,-119.2398448,NA,NA,17115511
T11238250,11238250,EASTWOOD PP AB SHAVER LK NR BIG CREEK CA,37.13189099,-119.2617899,NA,NA,17115751
T11238380,11238380,BIG C PH NO 2 NR BIG CREEK CA,37.19883496,-119.3065146,NA,NA,17115579
T11238400,11238400,BIG C PH NO 2A NR BIG CREEK CA,37.19911273,-119.3054034,NA,NA,17116205
T11238500,11238500,BIG C NR MOUTH NR BIG CREEK CA,37.20772385,-119.3212376,N,131,17116205
T11238550,11238550,BIG C PH NO 8 NR BIG CREEK CA,37.20966833,-119.328738,NA,NA,17115529
T11238600,11238600,SAN JOAQUIN R AB STEVENSON C NR BIG CREEK CA,37.2077239,-119.329849,N,1197,17116559
T11239000,11239000,HUNTINGTON-SHAVER CONDUIT OTLT NR SHAVER LK CA,37.15494607,-119.2323443,NA,NA,17116237
T11239300,11239300,NF STEVENSON C A PERIMETER RD NR BIG C CA,37.13689087,-119.2545673,N,4.42,17116249
T11241500,11241500,STEVENSON C A SHAVER LK CA,37.14466898,-119.3084588,N,29.4,17115711
T11241800,11241800,BIG C PH NO 3 NR SHAVER LK CA,37.14855844,-119.3865182,NA,NA,17115699
T11242000,11242000,SAN JOAQUIN R AB WILLOW C NR AUBERRY CA,37.14439236,-119.454577,N,1295,17115703
T11242350,11242350,SOQUEL DIV NR SUGAR PINE CA,37.42549637,-119.5490338,NA,NA,17114855
T11242400,11242400,NF WILLOW C NR SUGAR PINE CA,37.3977195,-119.5662563,N,16.9,17115031
T11243300,11243300,BROWNS C CN AT BASS LAKE CA,37.2874456,-119.5195827,NA,NA,17116317
T11243500,11243500,PGE NO 3 CONDUIT NR BASS LAKE CA,37.2891122,-119.5298613,NA,NA,17115319
T11244000,11244000,NF WILLOW C NR BASS LAKE CA,37.28883445,-119.530139,N,50.8,17115319
T11244100,11244100,SAN JOAQUIN PH NO3 NR NORTH FORK CA,37.2549467,-119.5193039,NA,NA,17115319
T11245000,11245000,SF WILLOW C NR NORTH FORK CA,37.21383619,-119.4926351,N,39.8,17115453
T11245500,11245500,WHISKEY C NR NORTH FORK CA,37.22494688,-119.4565222,N,11.6,17115563
T11246500,11246500,WILLOW C A MOUTH NR AUBERRY CA,37.1507812,-119.4604107,N,130,17116241
T11246530,11246530,BIG C PH NO 4 NR AUBERRY CA,37.13883716,-119.4898565,NA,NA,17116245
T11246570,11246570,SAN JOAQUIN PH NO2 NR NORTH FORK CA,37.20161417,-119.4976352,NA,NA,17116229
T11246590,11246590,SAN JOAQUIN PH NO1A NR AUBERRY CA,37.15828085,-119.4273536,NA,NA,17116403
T11246610,11246610,SAN JOAQUIN PH NO1 NR AUBERRY (WISHON PH) CA,37.15328149,-119.5059686,NA,NA,17116391
T11246700,11246700,SAN JOAQUIN R NR AUBERRY CA,37.1321706,-119.5315256,N,1461,17115743
T11246950,11246950,KERCKHOFF PH NR AUBERRY CA,37.09328219,-119.5526376,NA,NA,17116573
T11247000,11247000,SAN JOAQUIN R BL KERCKHOFF PH NR PRATHER CA,37.07911569,-119.5609713,N,1480,17115887
T11247050,11247050,KERCKHOFF PH NO 2 A MILLERTON LK NR AUBERRY CA,37.07217134,-119.5579154,NA,NA,17116441
T11247500,11247500,BIG SANDY C NR AUBERRY CA,37.05272717,-119.5426365,N,27.3,17115919
T11248000,11248000,FINE GOLD C NR FRIANT CA,37.06661565,-119.6481985,N,92.7,17115907
T11249500,11249500,MADERA CN A FRIANT CA,37.0027273,-119.7068118,NA,NA,19778329
T11250000,11250000,FRIANT-KERN CN A FRIANT CA,36.9980051,-119.7040338,NA,NA,19791923
T11250500,11250500,COTTONWOOD C NR FRIANT CA,37.00133839,-119.7204236,N,35.6,17100977
T11251000,11251000,SAN JOAQUIN R BL FRIANT CA,36.98439397,-119.7243124,N,1676,19791955
T11251500,11251500,LITTLE DRY C NR FRIANT CA,36.93967195,-119.6829204,N,57.9,19791925
T11251600,11251600,LITTLE DRY C A MOUTH NR FRIANT CA,36.93467181,-119.7301452,N,77.4,19791931
T11253000,11253000,SAN JOAQUIN R NR BIOLA CA,36.82272414,-120.0882159,N,1811,19784325
T11253310,11253310,CANTUA C NR CANTUA CREEK CA,36.40217399,-120.4334917,Y,46.4,14882615
T11253500,11253500,JAMES BYPASS (FRESNO SLOUGH) NR SAN JOAQUIN CA,36.65244895,-120.1812687,NA,NA,17136358
T11254000,11254000,SAN JOAQUIN R NR MENDOTA CA,36.8105046,-120.3782256,N,3940,19784319
T11255500,11255500,PANOCHE C BL SILVER C NR PANOCHE CA,36.61884106,-120.6737861,N,293,19780249
T11255550,11255550,LITTLE PANOCHE C TRIB NO 1 NR PANOCHE CA,36.71800677,-120.864906,N,0.33,19780085
T11256000,11256000,SAN JOAQUIN R NR DOS PALOS CA,36.99494643,-120.5010129,N,4669,19784273
T11257100,11257100,MIAMI C NR OAKHURST CA,37.39355278,-119.6543181,Y,10.6,17099787
T11257500,11257500,FRESNO R NR KNOWLES CA,37.23716913,-119.7748763,Y,133,17100137
T11258000,11258000,FRESNO R BL HIDDEN DAM NR DAULTON CA,37.09744734,-119.8896013,Y,258,17100623
T11258800,11258800,EF CHOWCHILLA R NR AHWAHNEE CA,37.33605443,-119.8162709,N,57.8,17099913
T11258900,11258900,WF CHOWCHILLA R NR MARIPOSA CA,37.42049563,-119.8746104,N,33.6,17099715
T11258920,11258920,MF CHOWCHILLA R NR NIPINNAWASEE CA,37.38327485,-119.8376626,N,13.6,17099783
T11258960,11258960,CHOWCHILLA R AB WILLOW C NR RAYMOND CA,37.27300075,-119.881272,N,173,17100053
T11258980,11258980,CHOWCHILLA R NR RAYMOND CA,37.2599452,-119.9462749,N,201,17100087
T11259000,11259000,CHOWCHILLA R BL BUCHANAN DAM NR RAYMOND CA,37.21550105,-119.9912761,Y,236,17100939
T11260000,11260000,SAN JOAQUIN R NR EL NIDO CA,37.11188912,-120.5899092,N,6443,19777431
T11260001,11260001,SAN JOAQUIN R + CHAMBERLAIN SL NR EL NIDO CA,37.11188912,-120.5899092,NA,6447,19777431
T11260200,11260200,BEAR C NR CATHEYS VALLEY CA,37.47771555,-120.1135129,N,24.9,17098955
T11260225,11260225,BURNS C A HORNITOS CA,37.49604827,-120.2396298,N,26.7,17098957
T11260480,11260480,MARIPOSA C NR CATHEYS VALLEY CA,37.39882931,-120.0037831,N,65.7,17098987
T11261000,11261000,SALT SLOUGH NR LOS BANOS CA,37.1596655,-120.8093623,N,NA,948040356
T11261100,11261100,SALT SLOUGH A HWY 165 NR STEVINSON CA,37.24771864,-120.8521446,N,NA,19777307
T11261500,11261500,SAN JOAQUIN R A FREMONT FORD BRIDGE CA,37.3099386,-120.9310369,N,7615,19771455
T11262800,11262800,LOS BANOS C NR LOS BANOS CA,37.01661256,-120.9024152,Y,159,19772875
T11262895,11262895,SAN LUIS DR SITE B NR STEVINSON CA,37.2407741,-120.8779783,NA,NA,19777385
T11262900,11262900,MUD SLOUGH NR GUSTINE CA,37.26244,-120.9065908,N,NA,19771685
T11263000,11263000,SAN LUIS C NR LOS BANOS CA,37.06522175,-121.0718667,NA,84.6,948040343
T11264500,11264500,MERCED R A HAPPY ISLES BRIDGE NR YOSEMITE CA,37.73159272,-119.5587736,Y,181,21609533
T11265000,11265000,TENAYA C NR YOSEMITE VILLAGE CA,37.74214772,-119.5579409,N,46.9,21609435
T11265500,11265500,MERCED R A YOSEMITE CA,37.74381435,-119.590165,N,236,21609431
T11266000,11266000,YOSEMITE C A YOSEMITE CA,37.74548095,-119.5954432,N,42.7,21609419
T11266500,11266500,MERCED R A POHONO BRIDGE NR YOSEMITE CA,37.71687138,-119.6662788,Y,321,21609641
T11267300,11267300,SF MERCED R A WAWONA CA,37.53882469,-119.6621022,N,100,21610419
T11267350,11267350,BIG C DIV NR FISH CAMP CA,37.46938349,-119.6151512,NA,NA,948040317
T11267500,11267500,SF MERCED R NR WAWONA CA,37.54160229,-119.6732143,N,132,21610403
T11268000,11268000,SF MERCED R NR EL PORTAL CA,37.65131973,-119.8854532,Y,241,21610027
T11268200,11268200,MERCED R NR BRICEBURG CA,37.63576505,-119.9332325,N,691,21610715
T11268500,11268500,MERCED R A BAGBY CA,37.61104447,-120.1315727,N,911,21608675
T11269300,11269300,MAXWELL C A COULTERVILLE CA,37.71604127,-120.1899102,YY,17,21606909
T11269700,11269700,EXCHEQUER PH A EXCHEQUER CA,37.5835456,-120.2757438,N,NA,21607271
T11270000,11270000,MERCED R A EXCHEQUER CA,37.58187901,-120.2801884,N,1037,21607271
T11270610,11270610,MCSWAIN PH NR SNELLING CA,37.52132518,-120.3099106,NA,NA,21608729
T11270800,11270800,NORTHSIDE CN A MERCED FALLS CA,37.52271397,-120.334356,NA,NA,2824416
T11270900,11270900,MERCED R BL MERCED FALLS DAM NR SNELL CA,37.5216029,-120.3324114,N,1061,2824504
T11271320,11271320,DRY C NR SNELLING CA,37.55493506,-120.4632498,N,67.6,2824270
T11271500,11271500,MERCED R NR LIVINGSTON CA,37.3913266,-120.7871459,N,1259,2833552
T11272500,11272500,MERCED R NR STEVINSON CA,37.37077046,-120.9304826,N,1273,2833552
T11274000,11274000,SAN JOAQUIN R NR NEWMAN CA,37.3504928,-120.97715,N,9520,2829226
T11274500,11274500,ORESTIMBA C NR NEWMAN CA,37.31549247,-121.1252081,Y,134,2828012
T11274538,11274538,ORESTIMBA CR AT RIVER RD NR CROWS LANDING CA,37.41354657,-121.0160412,N,NA,2827158
T11274550,11274550,SAN JOAQUIN R NR CROWS LANDING CA,37.43187949,-121.0138193,N,9694,2828044
T11274600,11274600,DEL PUERTO C TRIB 1 NR PATTERSON CA,37.40410175,-121.4371618,N,0.71,16594851
T11274610,11274610,DEL PUERTO C TRIB 2 NR PATTERSON CA,37.42354527,-121.3427154,N,0.02,16594795
T11274630,11274630,DEL PUERTO C NR PATTERSON CA,37.48659935,-121.2091026,Y,72.6,2827982
T11274790,11274790,TUOLUMNE R A GRAND CYN OF TUOLUMNE AB HETCH HETCHY,37.916588,-119.659894,Y,301,17081597
T11274800,11274800,TUOLUMNE R AT HETCH HETCHY NR SEQUOIA CA,37.9554763,-119.7593427,N,404,17082215
T11275000,11275000,FALLS C NR HETCH HETCHY CA,37.97075376,-119.764343,Y,46,17082117
T11276500,11276500,TUOLUMNE R NR HETCH HETCHY CA,37.93742147,-119.7982326,N,457,17081559
T11276600,11276600,TUOLUMNE R AB EARLY INTAKE NR MATHER CA,37.87936848,-119.947126,N,484,17082145
T11276900,11276900,TUOLUMNE R BL EARLY INTAKE NR MATHER CA,37.8815908,-119.9701824,N,487,17082145
T11277000,11277000,CHERRY C NR HETCH HETCHY CA,37.99825414,-119.9010136,N,111,17082171
T11277100,11277100,LK ELEANOR DIV TO CHERRY LAKE NR HETCH HETCHY CA,37.9796433,-119.8818464,NA,NA,17082195
T11277300,11277300,CHERRY C BL VALLEY DAM NR HETCH HETCHY CA,37.96769944,-119.9174029,N,118,17081431
T11278000,11278000,ELEANOR C NR HETCH HETCHY CA,37.969088,-119.882124,N,78.4,17081409
T11278200,11278200,CHERRY C CN NR EARLY INTAKE CA,37.8932571,-119.9557374,NA,NA,17081711
T11278300,11278300,CHERRY C NR EARLY INTAKE CA,37.89436824,-119.962682,N,226,17082139
T11278400,11278400,"CHERRY C BL DION R HOLM PH, NR MATHER CA",37.8902017,-119.9699046,N,234,17081685
T11279500,11279500,SF TUOLUMNE R AT ITALIAN F NR SEQUOIA CA,37.82325848,-119.9176806,N,64.9,17081887
T11281000,11281000,SF TUOLUMNE R NR OAKLAND RECREATION CAMP CA,37.82159266,-120.0129616,Y,87,17078519
T11281500,11281500,M TUOLUMNE R NR MATHER CA,37.8499241,-119.8676789,N,52.4,17081795
T11282000,11282000,M TUOLUMNE R A OAKLAND RECREATION CAMP CA,37.82825915,-120.0115727,Y,73.5,17078467
T11282500,11282500,SF TUOLUMNE R NR BUCK MEADOWS CA,37.83742588,-120.0454624,N,164,17078463
T11283000,11283000,TUOLUMNE R NR BUCK MEADOWS CA,37.83714818,-120.0535182,N,924,17078431
T11283100,11283100,LILY C NR PINECREST CA,38.14463936,-119.9007361,N,11.9,17076303
T11283200,11283200,BELL C NR PINECREST CA,38.1626948,-119.9432376,N,9.11,17076215
T11283250,11283250,CLAVEY R NR LONG BARN CA,38.07658641,-120.0112948,N,48.9,17074613
T11283350,11283350,REED C NR LONG BARN CA,38.00464384,-120.022128,N,27.2,17074999
T11283500,11283500,CLAVEY R NR BUCK MEADOWS CA,37.90048017,-120.0718517,Y,144,17078183
T11284400,11284400,BIG C AB WHITES GULCH NR GROVELAND CA,37.8418714,-120.1849103,Y,16.4,17078425
T11284500,11284500,BIG C NR GROVELAND CA,37.85826014,-120.2062997,N,25,17078365
T11284700,11284700,NF TUOLUMNE R NR LONG BARN CA,38.09880899,-120.0996308,N,23.1,17074571
T11285000,11285000,NF TUOLUMNE R AB DYER C NR TUOLUMNE CA,37.98131299,-120.2065768,N,69.2,17077893
T11286500,11286500,WOODS C NR JACKSONVILLE CA,37.85826064,-120.3968611,N,97.2,17080219
T11288000,11288000,TUOLUMNE R AB LA GRANGE DAM NR LA GRANGE CA,37.70909762,-120.4132502,N,1532,17080367
T11289000,11289000,MODESTO CN NR LA GRANGE CA,37.67243198,-120.4749183,NA,NA,2826002
T11289500,11289500,TURLOCK CN NR LA GRANGE CA,37.66576548,-120.4410283,NA,NA,2823784
T11289501,11289501,COMBINED FLOW MODESTO CN PLUS TURLOCK CN CA,37.666321,-120.4421394,NA,NA,2823750
T11289650,11289650,TUOLUMNE R BL LAGRANGE DAM NR LAGRANGE CA,37.666321,-120.4421394,N,1538,2823750
T11289651,11289651,COMB FLOW TUOLUMNE R + MODESTO CN + TURLOCK CA,37.66632102,-120.4421394,NA,1538,2823750
T11290000,11290000,TUOLUMNE R A MODESTO CA,37.6268752,-120.9879889,N,1884,2823972
T11292000,11292000,MF STANISLAUS R AT KENNEDY MDWS NR DARDANELLE CA,38.29741247,-119.7412867,N,47.5,347511
T11292500,11292500,CLARK FORK STANISLAUS R NR DARDANELLE CA,38.36380105,-119.8712915,Y,67.5,347487
T11292610,11292610,DONNELL PH NR STRAWBERRY CA,38.2463047,-120.03463,NA,NA,344873
T11292700,11292700,MF STANISLAUS R A HELLS HALF ACRE BRIDGE CA,38.247138,-120.03463,N,287,344873
T11292820,11292820,BEARDSLEY PH NR STRAWBERRY CA,38.20269508,-120.0768533,NA,NA,343157
T11292860,11292860,JW SOUTHERN PP A SND BAR DIV DAM NR LNG BRN CA,38.184363,-120.1576891,NA,NA,343265
T11292900,11292900,MF STANISLAUS R BL BEARDSLEY DAM CA,38.19325109,-120.0990762,N,316,343203
T11292901,11292901,MF STANISLAUS R BL BEARDSLEY DAM TOTAL FLOW CA,38.19325109,-120.0990762,NA,NA,343205
T11293000,11293000,MF STANISLAUS R A SBF NR AVERY CA,38.18658501,-120.1421331,N,325,343235
T11293500,11293500,NF STANISLAUS R BL SILVER C CA,38.43935632,-120.0157411,N,27.8,342483
T11293580,11293580,NF STANISLAUS R DIV TUNNEL NR BIG MDW CA,38.41019006,-119.9957403,NA,NA,346319
T11293600,11293600,NF STANISLAUS R BL DIV DAM NR BIG MDW CA,38.4343564,-120.0187968,N,28.8,342483
T11293700,11293700,HOBART C AT NF DIV TUNNL OUTLT NR SPICER MDWS CA,38.41157892,-119.9946292,N,1.13,346319
T11293710,11293710,NF STANISLAUS DIV TU OL BL HOBART C NR NSMD CA,38.4107456,-119.9951847,NA,NA,346319
T11293760,11293760,NEW SPICER MDW DAM PP A NSMD NR B MDW CA,38.39241265,-119.9993515,NA,NA,347483
T11294000,11294000,HIGHLAND C BL SPICER MEADOWS RES CA,38.3929682,-119.9990737,Y,45.4,342587
T11294300,11294300,NF STANISLAUS R BL GAN DAMS NR BIG MDW CA,38.40130223,-120.1124112,N,111,342555
T11294400,11294400,NF STANISLAUS R A SOURGRASS CG NR DORINGTON CA,38.3204715,-120.2190814,N,NA,342759
T11294500,11294500,NF STANISLAUS R NR AVERY CA,38.2438067,-120.2910282,Y,166,344905
T11295000,11295000,UTICA CN NR AVERY CA,38.24325119,-120.2910282,NA,NA,344905
T11295210,11295210,BEAVER C DIV TO MCKAYS POINT RES NR ARNOLD CA,38.23352925,-120.2799164,NA,NA,343061
T11295230,11295230,BEAVER CR BEL DIV DAM NR ARNOLD CA,38.2329737,-120.280472,N,29.3,343061
T11295240,11295240,UTICA CA A PRESSURE TAP NR HATHAWAY PINES CA,38.19241898,-120.3549186,NA,NA,343271
T11295250,11295250,COLLIERVILLE PP NR HATHAWAY PINES CA,38.14242024,-120.3785296,NA,NA,343159
T11295270,11295270,NF STANISLAUS R BL MCKAYS POINT DAM NR AVERY CA,38.2326959,-120.293528,N,166,343159
T11295300,11295300,NF STANISLAUS R BL BEAVER C NR HATHAWAY PINES CA,38.2071409,-120.3171396,N,196,343159
T11295400,11295400,STANISLAUS R NR HATHAWAY PINES CA,38.14130917,-120.3729738,N,629,343589
T11295401,11295401,STANISLAUS R NR HATHAWAY PINES CA (TOTAL FLOW),38.14130917,-120.3729738,NA,629,343589
T11295500,11295500,STANISLAUS TU A OUTLET CA,38.14464247,-120.3499175,NA,NA,344973
T11295505,11295505,STANISLAUS PP NR HATHAWAY PINES CA,38.13964256,-120.3704737,NA,NA,343589
T11296500,11296500,SF STANISLAUS R A STRAWBERRY CA,38.19741675,-120.0085176,N,44.8,343249
T11297000,11297000,PHILADELPHIA CN NR STRAWBERRY CA,38.1782509,-120.0465743,NA,NA,343343
T11297500,11297500,TUOLUMNE CN NR LONG BARN CA,38.0929765,-120.1685215,NA,NA,343847
T11298000,11298000,SF STANISLAUS R NR LONG BARN CA,38.09242097,-120.1687993,N,66.9,343907
T11299200,11299200,NEW MELONES PP BL NEW MELONES DAM NR SONORA CA,37.94631414,-120.5282548,N,NA,348435
T11299500,11299500,STANISLAUS R BL MELONES PH NR SONORA CA,37.94714745,-120.5301993,N,905,348435
T11299600,11299600,BLACK C NR COPPEROPOLIS CA,37.96103615,-120.6152035,Y,14.4,348419
T11299996,11299996,TULLOCH PH NR KNIGHTS FERRY CA,37.87603788,-120.6052025,NA,NA,349891
T11300000,11300000,STANISLAUS R NR KNIGHTS FERRY CA,37.87492679,-120.6060359,N,980,349891
T11300500,11300500,S SAN JOAQUIN CN NR KNIGHTS FERRY CA,37.85437157,-120.6382594,NA,NA,348569
T11300600,11300600,S SAN JOAQUIN MAIN CN BL DIV PT NR KNIGHTS CA,37.8232609,-120.6743718,NA,NA,2823198
T11300700,11300700,S SAN JOAQUIN MAIN CN BL WOODWARD RES CA,37.86048204,-120.8718787,NA,NA,2826152
T11300800,11300800,N MAIN CN BL DIV PT NR KNIGHTS FERRY CA,37.8335385,-120.6735385,NA,NA,2823132
T11301000,11301000,OAKDALE CN NR KNIGHTS FERRY CA,37.85881594,-120.6332592,NA,NA,348541
T11302000,11302000,STANISLAUS R BL GOODWIN DAM NR KNIGHTS FERRY CA,37.85159385,-120.6379816,N,986,348545
T11303000,11303000,STANISLAUS R A RIPON CA,37.72965078,-121.1104934,N,1075,2819818
T11303500,11303500,SAN JOAQUIN R NR VERNALIS CA,37.67604063,-121.2663293,N,13539,1897416
T11304000,11304000,CORRAL HOLLOW C NR TRACY CA,37.65659719,-121.4788334,N,61.6,1897194
T11305000,11305000,SAN DOMINGO C NR SAN ANDREAS CA,38.11519873,-120.6177057,N,26.2,17067338
T11305500,11305500,SAN ANTONIO C NR SAN ANDREAS CA,38.13103165,-120.6371512,N,48,17067208
T11306000,11306000,SF CALAVERAS R NR SAN ANDREAS CA,38.14436464,-120.6638192,N,118,17067108
T11306500,11306500,CALAVERITAS C NR SAN ANDREAS CA,38.16380851,-120.6593748,N,53,17067014
T11307000,11307000,ESPERANZA C NR MOKELUMNE HILL CA,38.31658137,-120.5954844,N,16.6,17066152
T11307500,11307500,JESUS MARIA C NR MOKELUMNE HILL CA,38.28324924,-120.6510422,N,34.6,17066270
T11308000,11308000,NF CALAVERAS R NR SAN ANDREAS CA,38.22130689,-120.6993772,N,85.2,17066690
T11308500,11308500,MURRAY C NR SAN ANDREAS CA,38.21241824,-120.6829875,N,22.7,17066768
T11308900,11308900,CALAVERAS R BL NEW HOGAN DAM NR VALLEY SPRINGS CA,38.14797568,-120.8249362,N,363,17067102
T11309000,11309000,COSGROVE C NR VALLEY SPRINGS CA,38.13603156,-120.8357697,N,21.1,17067196
T11309500,11309500,CALAVERAS R A JENNY LIND CA,38.08881063,-120.8657702,N,393,2976420
T11311000,11311000,STOCKTON DIVERT CN A STOCKTON CA,37.99297865,-121.2593908,NA,NA,2979206
T11312000,11312000,BEAR C NR LOCKEFORD CA,38.15269672,-121.1388332,N,47.6,3953369
T11312500,11312500,BEAR C AT HARMONY SCHOOL NR LOCKEFORD CA,38.11658645,-121.1793896,N,51.1,3952873
T11313000,11313000,DELTA-MENDOTA CN A TRACY PP NR TRACY CA,37.79687204,-121.5852273,NA,NA,1897068
T11313510,11313510,SALT SPRINGS PH NR WEST POINT CA,38.49796756,-120.2182488,NA,NA,17055544
T11314000,11314000,TIGER C PH COND BL SALT SPRINGS DAM CA,38.4957454,-120.2207489,NA,NA,17055528
T11314500,11314500,NF MOKELUMNE R BL SALT SPRINGS DAM CA,38.4935232,-120.2210266,N,170,17055544
T11315000,11315000,COLE C NR SALT SPRINGS DAM CA,38.5190783,-120.2126928,Y,21,17053540
T11315500,11315500,BEAR R A PARDOE CAMP CA,38.53324502,-120.2510273,N,33,17053578
T11316000,11316000,BEAR R NR SALT SPRINGS DAM CA,38.49352287,-120.2893623,N,48,17055540
T11316500,11316500,NF MOKELUMNE R NR WEST POINT CA,38.46657805,-120.3676982,N,273,17055806
T11316600,11316600,NF MOKELUMNE R AB TIGER C CA,38.44657711,-120.4902023,N,333,17055970
T11316605,11316605,TIGER C BL REGULATOR RES NR PIONEER CA,38.47694444,-120.4530556,N,7.35,17055724
T11316610,11316610,TIGER C PH NR WEST POINT CA,38.44907699,-120.4929802,NA,NA,17058244
T11316700,11316700,NF MOKELUMNE R BL ELECTR DIV DAM NR WEST PT CA,38.4207444,-120.5499267,N,365,17056846
T11316800,11316800,FOREST C NR WILSEYVILLE CA,38.40324566,-120.4468676,Y,20.8,17056582
T11317000,11317000,MF MOKELUMNE R A WEST POINT CA,38.3896344,-120.5265927,N,68.4,17056670
T11317500,11317500,SF MOKELUMNE R NR RAILROAD FLAT CA,38.33185918,-120.4232557,N,38.7,17057430
T11318500,11318500,SF MOKELUMNE R NR WEST POINT CA,38.36824625,-120.5454823,Y,75.1,17056948
T11319500,11319500,MOKELUMNE R NR MOKELUMNE HILL CA,38.3126926,-120.7202112,N,544,17057632
T11321000,11321000,MOKELUMNE R A LANCHA PLANA CA,38.22352898,-120.8899385,N,587,3955377
T11323500,11323500,MOKELUMNE R BL CAMANCHE DAM CA,38.22047316,-121.0396646,N,621,3953353
T11325000,11325000,WOODBRIDGE CN A WOODBRIDGE CA,38.1524182,-121.3018925,NA,NA,3953371
T11325500,11325500,MOKELUMNE R A WOODBRIDGE CA,38.15852914,-121.3035592,N,661,948040261
